     3.02           OBSERVATION DATA    M: MIXED            RINEX VERSION / TYPE
Spider V7.1.1.7438  LVerminio           20181125 225953 UTC PGM / RUN BY / DATE
SNR is mapped to RINEX snr flag value [1-9]                 COMMENT
LX:     < 12dBHz -> 1; 12-17dBHz -> 2; 18-23dBHz -> 3       COMMENT
       24-29dBHz -> 4; 30-35dBHz -> 5; 36-41dBHz -> 6       COMMENT
       42-47dBHz -> 7; 48-53dBHz -> 8; >= 54dBHz -> 9       COMMENT
Product                                                     COMMENT
0523                                                        MARKER NAME
KAIS                                                        MARKER NUMBER
Beppo1              IS WURSCHT                              OBSERVER / AGENCY
1830356             LEICA GR50          4.11/7.102          REC # / TYPE / VERS
725516              LEIAR25.R4      LEIT                    ANT # / TYPE
  4117042.4181   562061.9403  4823052.6020                  APPROX POSITION XYZ
        0.0771        0.0000        0.0000                  ANTENNA: DELTA H/E/N
G   12 C1C L1C D1C S1C C2W L2W D2W S2W C5Q L5Q D5Q S5Q      SYS / # / OBS TYPES
R    8 C1C L1C D1C S1C C2P L2P D2P S2P                      SYS / # / OBS TYPES
E   16 C1C L1C D1C S1C C5Q L5Q D5Q S5Q C7Q L7Q D7Q S7Q C8Q  SYS / # / OBS TYPES
       L8Q D8Q S8Q                                          SYS / # / OBS TYPES
DBHZ                                                        SIGNAL STRENGTH UNIT
    30.000                                                  INTERVAL
  2018    11    25    22    00    0.0000000     GPS         TIME OF FIRST OBS
  2018    11    25    22    59   30.0000000     GPS         TIME OF LAST OBS
     0                                                      RCV CLOCK OFFS APPL
G L2S -0.25000                                              SYS / PHASE SHIFT
G L2X -0.25000                                              SYS / PHASE SHIFT
R L2P  0.25000                                              SYS / PHASE SHIFT
E L8Q -0.25000                                              SYS / PHASE SHIFT
 24 R01  1 R02 -4 R03  5 R04  6 R05  1 R06 -4 R07  5 R08  6 GLONASS SLOT / FRQ #
    R09 -2 R10 -7 R11  0 R12 -1 R13 -2 R14 -7 R15  0 R16 -1 GLONASS SLOT / FRQ #
    R17  4 R18 -3 R19  3 R20  2 R21  4 R22 -3 R23  3 R24  2 GLONASS SLOT / FRQ #
 C1C  -71.940 C1P  -71.940 C2C  -71.940 C2P  -71.940        GLONASS COD/PHS/BIS
    18    18  1929     7                                    LEAP SECONDS
                                                            END OF HEADER
> 2018 11 25 22 00  0.0000000  0 26
G02  23100270.020   121392740.63008      1525.641          49.350    23100267.420    94591740.69207      1188.812          42.100
G06  23223170.840   122038608.85607      -338.852          47.700    23223173.280    95095032.13406      -264.042          39.800    23223171.740    91132736.62608      -252.877          48.950
G12  20355939.760   106971201.45208     -1343.812          51.750    20355937.920    83354192.63607     -1047.125          46.650
G14  22816131.280   119899567.07708      1168.809          48.550    22816129.740    93428220.22506       910.757          39.950
G19  24326173.620   127834935.03107     -3690.432          44.350    24326170.620    99611629.50506     -2875.661          36.750
G24  22642516.000   118987238.49808     -3194.938          50.050    22642518.960    92717350.47607     -2489.563          42.000    22642517.800    88854122.04808     -2385.850          50.250
G25  20509776.800   107779618.75408       978.533          51.750    20509778.260    83984127.90508       762.493          48.200    20509776.960    80484789.53108       730.729          52.450
G29  22594716.520   118736032.72108      3430.986          50.350    22594716.460    92521587.47206      2673.495          40.150
G31  24402025.180   128233502.13207      3401.354          45.850    24402022.900    99922235.46005      2650.404          32.800
G32  22258016.480   116966651.60108      -547.351          49.850    22258018.140    91142856.09107      -426.508          43.250    22258015.560    87345221.08008      -408.725          50.800
R02  22478632.780   119950278.79507     -2468.787          47.950    22478634.560    93294656.09107     -1920.168          44.200
R03  22894793.100   122557617.06308       909.429          48.050    22894792.360    95322577.46407       707.335          42.950
R10  22470307.720   119779387.27807     -3292.174          47.600    22470312.480    93161764.04506     -2560.578          37.650
R11  19414410.080   103744743.38108      -466.600          50.800    19414411.080    80690358.34108      -362.912          48.150
R12  20454959.320   109266682.22708      2474.258          49.250
R20  21823214.040   116698547.84107     -3183.207          45.850    21823215.800    90765545.01507     -2475.826          45.350
R21  19727888.380   105567931.00708      1057.723          50.350    19727888.560    82108392.97308       822.673          48.350
R22  22323671.620   119165273.80908      4454.043          50.250    22323673.780    92684112.46407      3464.255          44.850
E03  26795985.140   140813845.32147      -171.046          46.600    26795987.260   105153193.55007      -127.501          45.700    26795986.060   107896323.61007      -131.014          45.350    26795986.360   106524763.15807      -129.277          47.000
E05  26654143.700   140068455.97947     -2369.816          47.700    26654146.940   104596572.28707     -1769.661          46.500    26654146.440   107325178.07107     -1815.815          46.500    26654146.380   105960881.75807     -1792.762          47.800
E11  26850550.120   141100594.31147      3284.156          43.000    26850549.460   105367323.98107      2452.479          42.250    26850548.320   108116035.64506      2516.604          40.500    26850548.940   106741677.39207      2484.465          42.950
E12  23490950.980   123445785.90348      2437.462          49.100    23490950.380    92183542.32208      1820.248          48.250    23490949.880    94588328.14607      1867.761          47.800    23490950.620    93385933.30908      1844.022          49.300
E24  21497534.820   112970325.55548       615.961          51.100    21497547.540    84361003.09208       459.950          51.850    21497546.820    86561720.59508       471.958          52.050    21497547.380    85461379.92008       465.959          52.550
E25  25809111.020   135627798.43648      2350.475          50.250    25809112.780   101280508.12307      1755.257          47.850    25809111.440   103922605.05707      1800.988          47.700    25809112.220   102601561.16508      1778.135          49.000
E26  26413554.900   138804198.45847     -2504.146          46.700    26413557.240   103652502.98907     -1870.021          44.750    26413556.040   106356478.41307     -1918.807          44.400    26413556.700   105004498.77407     -1894.380          46.150
E31  24480922.940   128648145.55048     -1756.523          50.500    24480926.260    96068437.21008     -1311.664          50.850    24480925.220    98574565.61508     -1345.920          50.950    24480925.820    97321510.48908     -1328.789          51.750
> 2018 11 25 22 00 30.0000000  0 26
G02  23091601.080   121347184.94508      1511.360          49.400    23091598.560    94556242.77806      1177.685          41.200
G06  23225161.120   122049068.58407      -358.537          47.700    23225163.600    95103182.60606      -279.379          40.200    23225161.920    91140547.49908      -267.768          48.750
G12  20363644.640   107011690.92508     -1355.579          51.600    20363642.840    83385742.86907     -1056.296          46.400
G14  22809510.580   119864774.49908      1150.601          48.750    22809509.100    93401109.10906       896.572          39.500
G19  24347260.220   127945745.28407     -3696.839          45.050    24347257.020    99697975.16505     -2880.652          35.650
G24  22660778.840   119083209.97608     -3203.252          49.850    22660781.800    92792133.44207     -2496.040          42.100    22660780.640    88925789.05108     -2392.026          50.050
G25  20504227.140   107750455.63008       965.641          51.750    20504228.700    83961403.40308       752.447          48.000    20504227.460    80463011.88508       721.081          52.400
G29  22575154.980   118633236.66008      3422.014          50.250    22575155.000    92441486.66806      2666.505          39.900
G31  24382616.060   128131507.28807      3398.080          46.300    24382613.960    99842759.00505      2647.854          33.750
G32  22261197.620   116983369.40308      -567.354          49.850    22261199.540    91155882.93107      -442.094          43.100    22261196.860    87357705.13308      -423.624          50.700
R02  22492567.180   120024637.26907     -2488.396          47.000    22492569.380    93352490.41907     -1935.421          44.650
R03  22889768.180   122530717.92508       883.761          48.000    22889767.260    95301655.91407       687.370          43.000
R10  22488856.380   119878261.83108     -3299.648          48.300    22488861.440    93238666.40906     -2566.393          38.550
R11  19417074.300   103758979.52708      -482.562          51.200    19417075.160    80701430.89708      -375.325          48.400
R12  20441091.620   109192602.52808      2464.382          49.400
R20  21841123.940   116794320.06607     -3201.603          45.600    21841125.640    90840034.52107     -2490.135          45.450
R21  19722035.840   105536612.54608      1030.139          50.550    19722035.940    82084034.19108       801.220          48.550
R22  22298664.480   119031783.71108      4445.210          50.600    22298666.620    92580286.85807      3457.387          45.400
E03  26797002.080   140819190.24947      -185.524          46.650    26797004.000   105157184.91807      -138.448          45.250    26797002.960   107900419.09907      -142.209          45.400    26797003.500   106528806.58407      -140.394          46.800
E05  26667694.180   140139664.30347     -2377.356          47.700    26667697.700   104649747.33407     -1775.374          46.000    26667696.600   107379740.30807     -1821.730          46.050    26667697.000   106014750.39307     -1798.521          47.350
E11  26831795.660   141002038.71447      3286.213          42.900    26831794.640   105293727.18706      2453.870          40.700    26831793.240   108040518.93706      2517.813          39.400    26831794.300   106667120.65006      2485.730          41.650
E12  23477062.940   123372803.68448      2427.906          49.200    23477062.380    92129042.63408      1813.004          48.250    23477061.720    94532406.72307      1860.299          47.950    23477062.520    93330722.75308      1836.675          49.300
E24  21494038.040   112951950.02548       609.003          50.950    21494050.760    84347281.10608       454.779          51.800    21494050.040    86547640.64408       466.653          52.050    21494050.640    85447478.95308       460.692          52.500
E25  25795697.680   135557311.68448      2348.571          49.850    25795699.320   101227871.95507      1753.821          47.400    25795698.120   103868595.76007      1799.545          47.850    25795698.980   102548238.43008      1776.707          48.900
E26  26427873.460   138879443.29147     -2512.208          46.700    26427875.640   103708692.32607     -1875.974          44.200    26427874.580   106414133.54607     -1924.912          44.900    26427875.360   105061421.01307     -1900.419          46.100
E31  24490965.840   128700921.22048     -1761.999          50.800    24490969.120    96107847.60408     -1315.784          50.650    24490968.120    98615004.10508     -1350.110          51.000    24490968.720    97361434.93408     -1332.954          51.700
> 2018 11 25 22 59 30.0000000  0 26
G02  22709885.480   119341262.13508      -438.234          49.800    22709881.800    92993188.00407      -341.480          42.600
G06  24214171.680   127246360.26507     -2464.929          46.750    24214173.640    99153021.62005     -1920.727          35.850    24214172.120    95021643.45307     -1840.529          46.250
G12  21690042.540   113981955.16508     -2505.168          51.650    21690041.300    88817116.16707     -1952.080          42.950
G14  22786387.600   119743255.96808     -1071.407          48.900    22786386.080    93306417.64906      -834.864          39.950
G24  25056776.020   131674257.48907     -3772.463          45.950    25056778.400   102603339.70705     -2939.583          35.150    25056777.300    98328195.33207     -2816.979          46.300
G25  20371087.860   107050804.59008      -572.826          52.250    20371089.520    83416220.79508      -446.358          48.550    20371088.300    79940545.30808      -427.707          52.600
G29  20732000.460   108947398.65608      1922.438          51.250    20731999.880    84894081.24407      1498.003          44.750
G31  22325769.720   117322705.96408      2542.852          50.300    22325767.960    91420316.14506      1981.442          41.650
G32  23355871.320   122735909.00608     -2521.116          49.700    23355873.480    95638379.07506     -1964.507          38.950    23355871.340    91653430.17308     -1882.471          48.850
R03  23297086.800   124711126.20707     -2017.417          45.900    23297086.480    96997528.32707     -1569.105          43.300
R04  23580844.860   126274360.41807      1202.830          46.450    23580844.040    98213383.28306       935.534          40.600
R11  20372860.300   108866402.56808     -2395.301          50.750    20372861.740    84673868.94507     -1863.013          47.600
R12  19300305.100   103098724.04008       813.056          50.100
R13  22929497.600   122442234.59207      3839.322          43.300    22929498.640    95232856.67706      2986.140          38.100
R20  24461041.720   130804202.80606     -4405.146          40.700    24461042.460   101736611.58006     -3426.227          41.300
R21  20105381.180   107587975.41708     -2083.190          51.050    20105381.160    83679539.73608     -1620.259          48.250
R22  19893246.300   106191502.71408      2533.315          50.650    19893247.880    82593402.47808      1970.356          48.850
R23  24255692.280   129751598.57607      4595.038          44.650    24255695.740   100917919.70806      3573.920          36.550
E03  27461484.900   144311058.85847     -1708.216          45.750    27461487.320   107764746.25307     -1275.593          45.550    27461486.260   110576004.14307     -1308.796          45.850    27461486.940   109170379.76907     -1292.157          46.950
E05  28463530.640   149576843.92747     -2798.416          43.250    28463534.180   111696990.98507     -2089.885          42.100    28463532.820   114610825.20807     -2144.516          43.750    28463533.460   113153914.67307     -2117.188          44.400
E08  26117916.700   137250572.68547       462.368          46.550    26117916.120   102492310.72807       345.369          43.350    26117915.100   105166020.12207       354.409          42.900    26117915.780   103829164.00607       349.826          44.600
E11  24632056.800   129442335.16947      3116.351          47.350    24632055.420    96661481.77107      2327.230          46.200    24632054.560    99183084.43807      2387.884          46.000    24632055.440    97922280.68107      2357.587          47.400
E12  22301828.980   117196915.13148       974.172          49.150    22301828.320    87517180.08608       727.582          50.100    22301827.760    89800234.46108       746.552          50.700    22301828.040    88658705.34608       737.101          51.250
E24  21381473.540   112360418.07948      -311.058          51.350    21381486.500    83905552.30708      -232.212          51.750    21381485.460    86094388.52508      -238.281          51.950    21381486.140    84999988.49208      -235.229          52.400
E25  24313388.540   127767728.40948      2000.989          50.550    24313390.680    95410975.86308      1494.310          50.400    24313389.260    97899954.50608      1533.271          50.350    24313390.140    96655469.75908      1513.815          51.250
E31  25887251.020   136038438.86048     -2370.039          49.850    25887254.420   101587160.30607     -1769.799          47.150    25887253.500   104237255.66307     -1815.969          47.700    25887253.840   102912217.06108     -1792.877          48.650
>                              4 55
    30                                                      # OF SATELLITES
G   12   C1C   L1C   D1C   S1C   C2W   L2W   D2W   S2W   C5QCOMMENT
         L5Q   D5Q   S5Q                                    COMMENT
   G02   120   120   120   120   120   120   120   120     0PRN / # OF OBS
           0     0     0                                    PRN / # OF OBS
   G06   120   120   120   120   120   120   120   120   120PRN / # OF OBS
         120   120   120                                    PRN / # OF OBS
   G12   120   120   120   120   120   120   120   120     0PRN / # OF OBS
           0     0     0                                    PRN / # OF OBS
   G14   120   120   120   120   120   120   120   120     0PRN / # OF OBS
           0     0     0                                    PRN / # OF OBS
   G19    63    62    63    63    62    62    62    62     0PRN / # OF OBS
           0     0     0                                    PRN / # OF OBS
   G24   120   120   120   120   120   120   120   120   120PRN / # OF OBS
         120   120   120                                    PRN / # OF OBS
   G25   120   120   120   120   120   120   120   120   120PRN / # OF OBS
         120   120   120                                    PRN / # OF OBS
   G29   120   120   120   120   120   120   120   120     0PRN / # OF OBS
           0     0     0                                    PRN / # OF OBS
   G31   120   120   120   120   120   120   120   120     0PRN / # OF OBS
           0     0     0                                    PRN / # OF OBS
   G32   120   120   120   120   120   120   120   120   120PRN / # OF OBS
         120   120   120                                    PRN / # OF OBS
R    8   C1C   L1C   D1C   S1C   C2P   L2P   D2P   S2P      COMMENT
   R02   114   114   114   114   114   114   114   114      PRN / # OF OBS
   R03   120   120   120   120   120   120   120   120      PRN / # OF OBS
   R04    76    76    76    76    76    76    76    76      PRN / # OF OBS
   R10   100   100   100   100    98    97    98    98      PRN / # OF OBS
   R11   120   120   120   120   120   120   120   120      PRN / # OF OBS
   R12   120   120   120   120     0     0     0     0      PRN / # OF OBS
   R13    66    66    66    66    66    66    66    66      PRN / # OF OBS
   R20   120   120   120   120   120   120   120   120      PRN / # OF OBS
   R21   120   120   120   120   120   120   120   120      PRN / # OF OBS
   R22   120   120   120   120   120   120   120   120      PRN / # OF OBS
   R23     6     6     6     6     6     6     6     6      PRN / # OF OBS
E   16   C1C   L1C   D1C   S1C   C5Q   L5Q   D5Q   S5Q   C7QCOMMENT
         L7Q   D7Q   S7Q   C8Q   L8Q   D8Q   S8Q            COMMENT
   E03   120   120   120   120   120   120   120   120   120PRN / # OF OBS
         120   120   120   120   120   120   120            PRN / # OF OBS
   E05   120   120   120   120   120   120   120   120   120PRN / # OF OBS
         120   120   120   120   120   120   120            PRN / # OF OBS
   E08    96    96    96    96    96    96    96    96    96PRN / # OF OBS
          96    96    96    96    96    96    96            PRN / # OF OBS
   E11   120   120   120   120   120   120   120   120   120PRN / # OF OBS
         120   120   120   120   120   120   120            PRN / # OF OBS
   E12   120   120   120   120   120   120   120   120   120PRN / # OF OBS
         120   120   120   120   120   120   120            PRN / # OF OBS
   E24   120   120   120   120   120   120   120   120   120PRN / # OF OBS
         120   120   120   120   120   120   120            PRN / # OF OBS
   E25   120   120   120   120   120   120   120   120   120PRN / # OF OBS
         120   120   120   120   120   120   120            PRN / # OF OBS
   E26    53    53    53    53    53    53    53    53    53PRN / # OF OBS
          53    53    53    53    53    53    53            PRN / # OF OBS
   E31   120   120   120   120   120   120   120   120   120PRN / # OF OBS
         120   120   120   120   120   120   120            PRN / # OF OBS
