     3.04           OBSERVATION DATA    M                   RINEX VERSION / TYPE
BNC 2.12.8          Wiesensarter        20190927 095943 UTC PGM / RUN BY / DATE
PORTIONS OF THIS HEADER GENERATED BY BKG AT 26-Sep-19 23:51 COMMENT
FROM SITELOG reyk_20190613.log                              COMMENT
OBS TYPES from www.igs-ip.net/REYK00ISL0                    COMMENT
RTCM_3 www.igs-ip.net/REYK00ISL0                            COMMENT
REYK00ISL                                                   MARKER NAME
10202M001                                                   MARKER NUMBER
                                                            MARKER TYPE
                    FSW                                     OBSERVER / AGENCY
1830137             LEICA GR50          4.31/7.403          REC # / TYPE / VERS
725281              LEIAR25.R4      LEIT                    ANT # / TYPE
  2587384.5330 -1043033.4970  5716564.0080                  APPROX POSITION XYZ
        0.0635        0.0000        0.0000                  ANTENNA: DELTA H/E/N
C    8 C2I L2I D2I S2I C7I L7I D7I S7I                      SYS / # / OBS TYPES
E   16 C1C L1C D1C S1C C7Q L7Q D7Q S7Q C8Q L8Q D8Q S8Q C5Q  SYS / # / OBS TYPES
       L5Q D5Q S5Q                                          SYS / # / OBS TYPES
G   16 C1C L1C D1C S1C C2W L2W D2W S2W C2S L2S D2S S2S C5Q  SYS / # / OBS TYPES
       L5Q D5Q S5Q                                          SYS / # / OBS TYPES
R   12 C1C L1C D1C S1C C2C L2C D2C S2C C2P L2P D2P S2P      SYS / # / OBS TYPES
  2019     9    27    10     0    0.0000000     GPS         TIME OF FIRST OBS
C L2I  0.00000                                              SYS / PHASE SHIFT
C L7I  0.00000                                              SYS / PHASE SHIFT
E L1C  0.00000                                              SYS / PHASE SHIFT
E L7Q  0.00000                                              SYS / PHASE SHIFT
E L8Q  0.00000                                              SYS / PHASE SHIFT
E L5Q  0.00000                                              SYS / PHASE SHIFT
G L1C  0.00000                                              SYS / PHASE SHIFT
G L2W  0.00000                                              SYS / PHASE SHIFT
G L2S  0.00000                                              SYS / PHASE SHIFT
G L5Q  0.00000                                              SYS / PHASE SHIFT
R L1C  0.00000                                              SYS / PHASE SHIFT
R L2C  0.00000                                              SYS / PHASE SHIFT
R L2P  0.00000                                              SYS / PHASE SHIFT
                                                            GLONASS COD/PHS/BIS
 24 R01  1 R02 -4 R03  5 R04  6 R05  1 R06 -4 R07  5 R08  6 GLONASS SLOT / FRQ #
    R09 -2 R10 -7 R11  0 R12 -1 R13 -2 R14 -7 R15  0 R16 -1 GLONASS SLOT / FRQ #
    R17  4 R18 -3 R19  3 R20  2 R21  4 R22 -3 R23  3 R24  2 GLONASS SLOT / FRQ #
                                                            END OF HEADER
> 2019 09 27 10 00  0.0000000  0 39
G01  20526252.501   107866192.408        1551.516          54.000    20526253.895    84051598.910        1208.974          50.000    20526254.002    84051594.915        1208.974          52.000    20526252.251    80549450.036        1158.553          56.000  
G03  24790445.541   130274671.619        4020.953          44.000    24790446.792   101512739.478        3133.213          39.000    24790447.471   101512742.476        3133.212          41.000    24790447.721    97283044.485        3002.609          42.000  
G08  21909591.920   115135679.564       -2803.169          54.000    21909593.063    89716120.687       -2184.289          48.000    21909593.832    89716123.694       -2184.289          50.000    21909591.830    85977932.739       -2093.276          53.000  
G10  23271983.358   122295106.499       -2751.001          47.000    23271984.698    95294881.178       -2143.639          45.000    23271984.787    95294898.178       -2143.639          48.000    23271982.500    91324274.772       -2054.212          50.000  
G11  20182171.473   106058033.736         708.563          51.000    20182168.739    82642616.517         552.127          49.000                                                                                                                                  
G14  25036551.573   131567973.763        3065.457          42.000    25036551.020   102520498.334        2388.673          37.000                                                                                                                                  
G17  24564622.779   129087961.651        3405.206          51.000    24564621.331   100588010.626        2653.407          40.000    24564621.635   100588017.627        2653.407          43.000                                                                  
G18  19912259.809   104639671.604        -241.988          53.000    19912258.612    81537378.537        -188.563          48.000                                                                                                                                  
G22  23192405.808   121876929.244        3240.436          51.000    23192401.806    94969025.579        2525.016          42.000                                                                                                                                  
G24  24551577.034   129019408.185        1719.541          46.000    24551579.089   100534603.977        1339.903          40.000    24551579.643   100534624.986        1339.902          43.000    24551579.232    96345675.008        1284.184          45.000  
G27  25046717.993   131621372.508       -3866.910          47.000    25046719.852   102562102.356       -3013.176          38.000    25046720.406   102562109.355       -3013.177          41.000    25046719.816    98288683.316       -2887.518          45.000  
G28  21843695.305   114789398.053         673.339          51.000    21843692.750    89446274.879         524.679          45.000                                                                                                                                  
G30  25566120.654   134350865.649       -3334.749          43.000    25566121.744   104688963.821       -2598.506          39.000    25566122.370   104688986.817       -2598.507          40.000    25566121.619   100326932.582       -2490.124          42.000  
G32  23723405.197   124667345.679        2223.195          50.000    23723406.412    97143397.445        1732.360          40.000    23723406.859    97143397.441        1732.359          41.000    23723404.572    93095755.710        1660.107          46.000  
R03  22625707.757   121117202.616       -3452.189          49.000    22625706.881    94202264.528       -2685.038          43.000    22625706.667    94202268.538       -2685.037          43.000  
R05  21902991.585   117084065.201        3944.530          50.000    21902993.283    91065396.411        3067.968          47.000    21902993.318    91065396.411        3067.969          46.000  
R11  21044789.407   112456983.896       -1403.434          53.000    21044790.712    87466547.723       -1091.560          48.000    21044790.730    87466546.715       -1091.561          48.000  
R12  22021208.877   117633347.271        2418.574          47.000    22021210.629    91492632.093        1881.111          44.000    22021210.646    91492639.085        1881.113          44.000  
R19  22472965.761   120215206.531       -3889.760          38.000    22472966.154    93500722.408       -3025.368          42.000    22472965.797    93500718.407       -3025.369          41.000  
R20  19319322.098   103309106.646        -579.318          47.000    19319324.779    80351531.894        -450.581          49.000    19319323.707    80351529.892        -450.581          49.000  
R21  21246758.453   113695696.681        3386.078          52.000    21246758.578    88429984.432        2633.618          48.000    21246758.614    88429990.431        2633.618          47.000  
E01  25400852.616   133482378.022        -141.706          51.000    25400852.705   102278703.441        -108.563          51.000    25400852.813   100978555.180        -107.187          54.000    25400854.028    99678409.553        -105.814          51.000  
E03  25747702.949   135305116.384        1301.991          51.000    25747704.218   103675358.829         997.590          49.000    25747704.951   102357454.802         984.992          52.000    25747705.451   101039555.411         972.296          48.000  
E05  26834238.308   141014882.848       -1469.900          49.000    26834239.344   108050374.023       -1126.290          47.000    26834239.791   106676855.261       -1111.953          51.000    26834240.917   105303337.135       -1097.621          47.000  
E08  25618674.148   134627051.891        3158.454          45.000    25618674.559   103155800.904        2420.006          43.000    25618675.166   101844500.308        2389.338          46.000    25618676.167   100533202.342        2358.588          43.000  
E13  23229087.660   122069678.002         390.865          54.000    23229087.482    93533933.409         299.545          54.000    23229087.875    92344940.827         295.726          57.000    23229088.875    91155952.883         291.878          54.000  
E15  24785348.563   130247896.694       -2265.801          53.000    24785350.135    99800348.972       -1736.168          52.000    24785350.439    98531702.453       -1714.087          55.000    24785351.404    97263056.570       -1692.034          51.000  
E18  17806162.548    93572015.811       -2028.967          56.000    17806162.262    71698032.749       -1554.657          57.000    17806162.530    70786617.822       -1534.868          60.000    17806163.602    69875207.539       -1515.110          57.000  
E21  26298768.786   138200952.725       -2760.938          51.000    26298769.894   105894233.549       -2115.577          49.000    26298770.198   104548122.009       -2088.602          52.000    26298771.217   103202013.117       -2061.730          48.000  
E26  24884980.409   130771451.617        2681.402          49.000    24884982.393   100201514.538        2054.566          49.000    24884982.697    98927766.303        2028.477          52.000    24884983.787    97654019.703        2002.342          48.000  
E31  27552869.996   144791309.488        2425.125          47.000    27552871.908   110944000.822        1858.278          44.000    27552872.105   109533696.561        1834.749          47.000    27552873.141   108123396.945        1811.075          43.000  
C06  39266633.891   204471670.070        -109.319          45.000    39266628.798   158110458.914         -84.593          44.000  
C09  39039513.409   203289010.451         852.857          45.000    39039511.622   157195962.327         659.386          45.000  
C11  21916950.651   114127333.352       -1155.262          50.000    21916948.078    88250485.940        -893.272          52.000  
C16  39133473.467   203778272.344          88.736          47.000    39133473.717   157574295.849          68.542          44.000  
C21  22976455.217   119644455.503         478.927          52.000                                                                  
C22  25098761.469   130695844.267       -2464.142          50.000                                                                  
C23  26189351.541   136374811.820       -3140.748          45.000                                                                  
C28  24429393.623   127210260.392        2981.714          48.000                                                                  
> 2019 09 27 10 00 30.0000000  0 39
G01  20517445.967   107819913.994        1534.013          54.000    20517447.397    84015537.787        1195.330          51.000    20517447.522    84015533.793        1195.330          52.000    20517445.753    80514891.475        1145.588          56.000  
G03  24767497.748   130154080.397        4018.588          45.000    24767499.339   101418772.349        3131.365          43.000    24767499.928   101418775.351        3131.365          44.000    24767499.267    97192992.589        3001.166          42.000  
G08  21925628.564   115219951.705       -2814.585          54.000    21925629.671    89781787.240       -2193.190          49.000    21925630.368    89781790.249       -2193.190          51.000    21925628.278    86040863.207       -2101.780          53.000  
G10  23287725.181   122377830.399       -2763.696          45.000    23287726.432    95359341.316       -2153.540          45.000    23287726.575    95359358.326       -2153.539          49.000    23287724.466    91386049.064       -2063.726          50.000  
G11  20178181.927   106037068.549         689.441          51.000    20178179.211    82626279.987         537.222          50.000                                                                                                                                  
G14  25019070.505   131476109.975        3059.021          44.000    25019069.915   102448916.182        2383.647          36.000                                                                                                                                  
G17  24545193.040   128985856.729        3402.273          50.000    24545191.360   100508448.328        2651.117          40.000    24545191.735   100508455.325        2651.117          42.000                                                                  
G18  19913700.160   104647240.635        -262.163          53.000    19913698.945    81543276.458        -204.288          49.000                                                                                                                                  
G22  23173933.366   121779856.672        3231.427          51.000    23173929.399    94893384.616        2517.991          44.000                                                                                                                                  
G24  24541810.291   128968083.317        1702.755          45.000    24541812.221   100494610.562        1326.815          41.000    24541812.703   100494631.576        1326.817          43.000    24541812.471    96307348.047        1271.275          44.000  
G27  25068799.210   131737409.158       -3868.427          46.000    25068800.764   102652520.422       -3014.368          39.000    25068801.372   102652527.428       -3014.369          42.000    25068800.907    98375333.973       -2888.749          45.000  
G28  21839903.034   114769469.225         655.718          51.000    21839900.425    89430745.902         510.944          44.000                                                                                                                                  
G30  25585167.853   134450958.846       -3337.915          47.000    25585168.854   104766958.544       -2600.977          37.000    25585169.426   104766981.557       -2600.976          38.000    25585168.997   100401677.535       -2492.573          44.000  
G32  23710756.538   124600878.321        2208.468          50.000    23710757.163    97091604.681        1720.878          40.000    23710757.896    97091604.687        1720.878          42.000    23710756.859    93046121.065        1649.200          46.000  
R03  22645102.169   121221022.330       -3468.687          49.000    22645101.222    94283013.141       -2697.874          42.000    22645101.025    94283017.151       -2697.874          42.000  
R05  21880894.483   116965943.967        3930.512          49.000    21880896.145    90973524.349        3057.063          46.000    21880896.199    90973524.351        3057.063          45.000  
R11  21052744.500   112499493.190       -1430.126          53.000    21052745.644    87499610.477       -1112.326          47.000    21052745.644    87499609.479       -1112.325          47.000  
R12  22007689.085   117561136.958        2395.770          45.000    22007692.641    91436468.488        1863.372          44.000    22007692.641    91436475.478        1863.372          43.000  
R19  22494801.260   120332011.379       -3896.276          39.000    22494801.564    93591570.563       -3030.442          40.000    22494801.242    93591566.557       -3030.442          40.000  
R20  19322629.655   103326793.617        -599.415          47.000    19322632.299    80365288.402        -466.216          48.000    19322631.209    80365286.398        -466.216          48.000  
R21  21227805.460   113594275.904        3375.754          51.000    21227805.656    88351101.580        2625.581          47.000    21227805.674    88351107.581        2625.582          47.000  
E01  25401707.345   133486869.548        -157.244          51.000    25401707.434   102282145.002        -120.528          51.000    25401707.524   100981952.992        -119.013          53.000    25401708.757    99681763.618        -117.488          50.000  
E03  25740311.214   135266270.755        1288.137          52.000    25740312.250   103645594.014         987.019          49.000    25740312.786   102328068.355         974.476          52.000    25740313.644   101010547.333         961.911          48.000  
E05  26842667.823   141059180.152       -1482.962          49.000    26842668.824   108084316.095       -1136.259          47.000    26842669.306   106710365.861       -1121.782          50.000    26842670.432   105336416.270       -1107.342          47.000  
E08  25600654.382   134532358.130        3155.030          46.000    25600654.882   103083243.380        2417.417          43.000    25600655.507   101772865.137        2386.717          46.000    25600656.544   100462489.529        2356.013          44.000  
E13  23226888.055   122058118.687         380.198          54.000    23226887.823    93525076.274         291.298          54.000    23226888.216    92336196.278         287.601          57.000    23226889.199    91147320.925         283.888          54.000  
E15  24798303.587   130315975.645       -2272.347          52.000    24798305.195    99852513.334       -1741.124          52.000    24798305.445    98583203.710       -1719.018          54.000    24798306.428    97313894.719       -1696.898          50.000  
E18  17817887.576    93633631.017       -2078.298          56.000    17817887.290    71745244.396       -1592.470          57.000    17817887.522    70833229.323       -1572.251          60.000    17817888.612    69921218.888       -1551.992          56.000  
E21  26314555.282   138283911.478       -2769.175          50.000    26314556.408   105957799.318       -2121.926          49.000    26314556.765   104610879.738       -2094.916          52.000    26314557.659   103263962.802       -2067.922          48.000  
E26  24869686.384   130691081.641        2677.043          49.000    24869688.600   100139932.373        2051.198          49.000    24869688.814    98866966.960        2025.093          52.000    24869689.761    97594003.180        1999.029          48.000  
E31  27539053.150   144718701.459        2415.709          46.000    27539054.847   110888366.115        1850.878          44.000    27539055.169   109478769.082        1827.524          46.000    27539056.223   108069176.703        1803.840          43.000  
C06  39267280.285   204475035.848        -114.451          45.000    39267275.174   158113061.556         -88.609          44.000  
C09  39034616.653   203263511.285         847.673          45.000    39034614.723   157176244.764         655.440          45.000  
C11  21923643.994   114162188.380       -1168.094          50.000    21923641.546    88277438.041        -903.209          52.000  
C16  39132980.943   203775707.730          82.735          47.000    39132981.300   157572312.735          64.003          44.000  
C21  22973748.292   119630359.737         461.230          52.000                                                                  
C22  25112992.252   130769947.186       -2475.697          50.000                                                                  
C23  26207461.921   136469118.234       -3145.940          46.000                                                                  
C28  24412232.642   127120898.197        2976.228          49.000                                                                                                                                  
> 2019 09 27 10 02 30.0000000  0 39
G01  20483224.072   107640075.697        1462.837          54.000    20483225.323    83875404.077        1139.872          50.000    20483225.412    83875400.080        1139.872          52.000    20483223.643    80380596.648        1092.351          56.000  
G03  24675836.111   129672394.016        4008.738          45.000    24675837.023   101043432.479        3123.690          34.000    24675837.755   101043435.483        3123.689          39.000    24675838.130    96833291.907        2993.477          48.000  
G08  21990426.108   115560465.710       -2860.798          53.000    21990427.395    90047122.742       -2229.193          48.000    21990428.127    90047125.751       -2229.192          50.000    21990425.983    86295143.021       -2136.323          53.000  
G10  23351421.690   122712555.392       -2815.034          47.000    23351422.690    95620165.903       -2193.532          45.000    23351422.708    95620182.906       -2193.532          48.000    23351420.332    91636005.925       -2102.257          50.000  
G11  20163330.929   105959027.051         610.929          51.000    20163328.409    82565468.438         476.048          50.000                                                                                                                                  
G14  24949513.242   131110585.842        3032.616          43.000    24949512.492   102164092.473        2363.082          39.000                                                                                                                                  
G17  24467658.134   128578407.706        3388.286          47.000    24467656.383   100190955.604        2640.225          38.000    24467656.704   100190962.605        2640.225          41.000                                                                  
G18  19920622.852   104683619.808        -344.431          53.000    19920621.672    81571623.866        -268.389          48.000                                                                                                                                  
G22  23100583.082   121394399.647        3192.425          50.000    23100579.687    94593028.641        2487.606          45.000                                                                                                                                  
G24  24503742.660   128768035.988        1631.343          46.000    24503744.358   100338729.609        1271.176          41.000    24503744.894   100338750.614        1271.176          43.000    24503744.501    96157962.096        1218.130          45.000  
G27  25157221.532   132202069.716       -3875.809          45.000    25157223.123   103014593.235       -3020.117          40.000    25157223.730   103014600.241       -3020.114          42.000    25157223.319    98722320.322       -2894.355          44.000  
G28  21825751.179   114695099.307         583.454          51.000    21825748.302    89372795.330         454.639          45.000                                                                                                                                  
G30  25661539.521   134852299.905       -3351.256          41.000    25661540.594   105079718.973       -2611.362          34.000    25661541.380   105079710.976       -2611.364          38.000    25661540.522   100701376.505       -2502.609          37.000  
G32  23661015.057   124339484.722        2147.632          51.000    23661015.593    96887921.457        1673.478          40.000    23661016.272    96887921.455        1673.478          43.000    23661014.896    92850924.638        1603.768          46.000  
R03  22723597.821   121641213.717       -3534.406          49.000    22723596.695    94609828.494       -2748.984          43.000    22723596.856    94609832.498       -2748.985          42.000  
R05  21793313.237   116497771.359        3871.664          51.000    21793314.792    90609390.244        3011.294          47.000    21793314.917    90609390.249        3011.295          46.000  
R11  21086063.938   112677542.284       -1537.478          53.000    21086065.189    87638093.085       -1195.818          48.000    21086065.153    87638092.082       -1195.817          47.000  
R12  21954924.666   117279267.989        2301.514          53.000    21954926.381    91217237.105        1790.064          45.000    21954926.310    91217244.107        1790.067          44.000  
R19  22582503.926   120801160.645       -3922.730          39.000    22582504.087    93956464.290       -3051.014          40.000    22582503.712    93956460.289       -3051.012          39.000  
R20  19336994.544   103403609.816        -681.086          47.000    19336997.350    80425034.351        -529.734          48.000    19336996.313    80425032.344        -529.733          48.000  
R21  21152590.007   113191785.437        3332.102          51.000    21152590.632    88038053.473        2591.634          48.000    21152590.596    88038059.476        2591.635          47.000  
E01  25406027.092   133509570.699        -221.312          52.000    25406027.199   102299539.368        -169.566          50.000    25406027.467   100999126.239        -167.430          53.000    25406028.772    99698715.748        -165.307          51.000  
E03  25711538.924   135115071.932        1231.545          52.000    25711540.032   103529740.456         943.611          49.000    25711540.639   102213687.510         931.610          52.000    25711541.461   100897639.201         919.606          49.000  
E05  26877136.239   141240313.634       -1535.982          49.000    26877137.490   108223106.656       -1177.134          47.000    26877137.883   106847392.131       -1162.168          49.000    26877138.741   105471678.243       -1147.149          47.000  
E08  25528783.241   134154674.112        3139.229          47.000    25528783.938   102793849.317        2405.464          43.000    25528784.278   101487149.830        2374.760          46.000    25528785.832   100180452.978        2344.280          43.000  
E13  23218710.654   122015146.067         335.757          54.000    23218710.422    93492149.192         257.261          54.000    23218710.833    92303687.761         254.001          56.000    23218711.816    91115230.969         250.735          54.000  
E15  24850502.005   130590281.615       -2299.576          53.000    24850503.970   100062695.720       -1762.071          51.000    24850504.185    98790714.278       -1739.652          53.000    24850505.185    97518733.471       -1717.260          50.000  
E18  17867600.234    93894871.682       -2275.577          56.000    17867599.859    71945415.767       -1743.597          57.000    17867600.055    71030856.138       -1721.444          59.000    17867601.145    70116301.143       -1699.273          57.000  
E21  26378178.993   138618256.345       -2803.181          51.000    26378180.351   106213985.485       -2147.939          49.000    26378180.601   104863809.299       -2120.644          51.000    26378181.423   103513635.750       -2093.381          48.000  
E26  24808780.338   130371018.012        2657.144          50.000    24808782.142    99894688.834        2035.920          48.000    24808782.571    98624840.930        2009.999          51.000    24808783.840    97354994.661        1984.160          49.000  
E31  27484342.150   144431197.038        2375.562          46.000    27484344.330   110668070.670        1820.311          43.000    27484344.884   109261274.023        1796.994          46.000    27484345.671   107854482.008        1773.744          44.000  
C06  39270180.695   204490138.796        -137.193          45.000    39270175.495   158124740.116        -106.146          43.000  
C09  39015342.196   203163137.303         824.939          47.000    39015339.373   157098629.232         637.928          45.000  
C11  21951171.349   114305531.407       -1221.171          50.000    21951168.901    88388279.951        -944.271          52.000  
C16  39131355.845   203767244.577          58.066          47.000    39131356.023   157565768.502          44.905          43.000  
C21  22963949.438   119579334.731         388.968          52.000                                                                  
C22  25170592.297   131069884.980       -2523.215          50.000                                                                  
C23  26280211.199   136847942.703       -3167.717          45.000                                                                  
C28  24343916.669   126765157.460        2952.402          50.000                                                                  
> 2019 09 27 10 03  0.0000000  0 39
G01  20474920.355   107596439.032        1445.498          55.000    20474921.534    83841401.483        1126.363          49.000    20474921.642    83841397.491        1126.363          51.000    20474919.855    80348010.835        1079.409          56.000  
G03  24652954.881   129552153.267        4006.415          43.000    24652955.203   100949738.377        3121.885          37.000    24652956.060   100949741.381        3121.885          37.000    24652957.257    96743501.809        2991.887          47.000  
G08  22006786.771   115646441.601       -2871.671          53.000    22006788.040    90114116.903       -2237.666          47.000    22006788.772    90114119.910       -2237.666          49.000    22006786.718    86359345.762       -2144.484          53.000  
G10  23367525.450   122797180.938       -2827.311          46.000    23367526.433    95686107.852       -2203.099          45.000    23367526.450    95686124.858       -2203.099          48.000    23367524.092    91699200.282       -2111.330          50.000  
G11  20159895.538   105940974.078         591.715          51.000    20159893.036    82551401.186         461.077          49.000                                                                                                                                  
G14  24932218.369   131019701.041        3025.967          43.000    24932217.708   102093273.209        2357.897          34.000                                                                                                                                  
G17  24448321.796   128476795.178        3385.081          49.000    24448319.831   100111777.011        2637.725          37.000    24448320.206   100111784.008        2637.724          39.000                                                                  
G18  19922643.338   104694237.215        -364.381          53.000    19922642.105    81579897.170        -283.932          48.000                                                                                                                                  
G22  23082382.178   121298753.851        3183.009          50.000    23082378.765    94518499.481        2480.268          43.000                                                                                                                                  
G24  24494477.268   128719345.909        1614.248          47.000    24494479.073   100300789.295        1257.855          40.000    24494479.484   100300810.308        1257.856          42.000    24494479.287    96121602.641        1205.217          46.000  
G27  25179349.690   132318354.683       -3877.222          44.000    25179351.602   103105204.803       -3021.214          38.000    25179352.139   103105211.818       -3021.212          42.000    25179351.728    98809156.382       -2895.300          45.000  
G28  21822468.067   114677846.159         565.838          52.000    21822465.172    89359351.318         440.913          44.000                                                                                                                                  
G30  25680674.993   134952872.394       -3353.559          39.000    25680676.673   105158082.780       -2613.158          37.000    25680677.799   105158082.776       -2613.159          39.000    25680676.298   100776470.419       -2504.357          42.000  
G32  23648794.843   124275266.721        2132.674          50.000    23648795.790    96837881.489        1661.826          41.000    23648796.254    96837881.491        1661.827          43.000    23648794.414    92802969.651        1592.649          45.000  
R03  22743447.250   121747468.839       -3550.031          49.000    22743446.142    94692471.342       -2761.133          43.000    22743446.285    94692475.348       -2761.133          42.000  
R05  21771623.138   116381826.253        3857.136          50.000    21771624.836    90519210.762        2999.994          46.000    21771624.907    90519210.762        2999.994          45.000  
R11  21094766.420   112724045.910       -1563.526          52.000    21094767.742    87674262.563       -1216.075          48.000    21094767.760    87674261.558       -1216.075          47.000  
R12  21942063.705   117210559.093        2278.207          53.000    21942063.883    91163796.924        1771.942          45.000    21942063.919    91163803.933        1771.943          44.000  
R19  22604517.705   120918919.654       -3928.782          40.000    22604518.151    94048054.549       -3055.721          41.000    22604517.705    94048050.562       -3055.720          39.000  
R20  19340868.888   103424327.864        -701.012          47.000    19340871.747    80441148.390        -545.230          49.000    19340870.675    80441146.386        -545.229          49.000  
R21  21133937.230   113091971.390        3321.418          51.000    21133938.088    87960420.342        2583.327          48.000    21133938.052    87960426.338        2583.327          47.000  
E01  25407332.156   133516428.696        -236.854          51.000    25407332.263   102304794.195        -181.401          50.000    25407332.496   101004314.266        -179.089          53.000    25407333.818    99703836.975        -176.793          51.000  
E03  25704546.114   135078322.288        1217.644          52.000    25704546.757   103501581.638         933.069          49.000    25704547.347   102185886.650         921.199          52.000    25704548.312   100870196.298         909.319          49.000  
E05  26885939.663   141286576.188       -1548.759          49.000    26885941.075   108258554.549       -1186.721          47.000    26885941.361   106882389.419       -1171.616          50.000    26885942.379   105506224.931       -1156.609          47.000  
E08  25510869.081   134060534.407        3135.927          45.000    25510869.707   102721716.339        2402.812          43.000    25510870.225   101415933.792        2372.270          46.000    25510871.315   100110153.875        2341.754          43.000  
E13  23216821.577   122005218.875         325.201          54.000    23216821.344    93484542.649         249.188          54.000    23216821.737    92296177.910         246.028          57.000    23216822.738    91107817.812         242.864          54.000  
E15  24863645.582   130659350.708       -2305.861          53.000    24863647.316   100115618.773       -1766.812          51.000    24863647.619    98842964.585       -1744.382          54.000    24863648.584    97570311.024       -1721.875          51.000  
E18  17880726.193    93963849.023       -2323.824          56.000    17880725.817    71998268.528       -1780.569          57.000    17880726.014    71083037.042       -1757.918          60.000    17880727.068    70167810.194       -1735.272          57.000  
E21  26394202.521   138702460.246       -2811.262          51.000    26394203.914   106278505.318       -2154.040          48.000    26394204.040   104927508.966       -2126.653          51.000    26394204.879   103576515.245       -2099.235          47.000  
E26  24793621.867   130291359.390        2652.577          51.000    24793623.600    99833651.710        2032.548          48.000    24793624.011    98564579.702        2006.757          51.000    24793625.208    97295509.333        1980.888          49.000  
E31  27470805.347   144360060.703        2366.043          46.000    27470807.616   110613563.630        1812.800          44.000    27470807.902   109207459.865        1789.818          47.000    27470809.046   107801360.738        1766.760          44.000  
C06  39270984.194   204494322.966        -142.527          45.000    39270978.904   158127975.566        -110.108          43.000  
C09  39010601.169   203138449.398         819.979          47.000    39010598.310   157079538.986         634.068          45.000  
C11  21958240.978   114342344.555       -1233.863          50.000    21958238.494    88416746.214        -954.077          52.000  
C16  39131035.507   203765576.371          52.262          47.000    39131035.578   157564478.544          40.469          43.000  
C21  22961757.070   119567918.683         371.272          52.000                                                                  
C22  25185159.357   131145739.873       -2534.449          51.000                                                                  
C23  26298472.858   136943035.607       -3172.574          45.000                                                                  
C28  24326920.691   126676655.171        2946.896          50.000                                                                  
> 2019 09 27 10 03 30.0000000  0 39
G01  20466717.044   107553330.080        1428.252          54.000    20466718.152    83807810.097        1112.924          50.000    20466718.277    83807806.102        1112.924          52.000    20466716.526    80315819.090        1066.503          57.000  
G03  24630087.856   129431986.339        4004.608          46.000    24630088.178   100856101.801        3120.473          38.000    24630089.018   100856104.808        3120.473          40.000    24630090.305    96653766.825        2990.221          45.000  
G08  22023210.673   115732749.146       -2882.442          54.000    22023211.798    90181369.513       -2246.058          48.000    22023212.531    90181372.520       -2246.059          49.000    22023210.530    86423796.164       -2152.439          53.000  
G10  23383699.542   122882175.910       -2839.221          46.000    23383700.382    95752337.664       -2212.382          45.000    23383700.471    95752354.681       -2212.381          48.000    23383698.148    91762670.514       -2120.227          50.000  
G11  20156570.613   105923501.959         572.700          51.000    20156568.201    82537786.545         446.260          49.000                                                                                                                                  
G14  24914961.771   130929016.790        3019.584          44.000    24914961.020   102022610.225        2352.926          35.000                                                                                                                                  
G17  24429004.668   128375282.607        3382.085          50.000    24429002.613   100032676.264        2635.390          39.000    24429003.077   100032683.268        2635.391          42.000                                                                  
G18  19924778.865   104705459.179        -384.121          53.000    19924777.596    81588641.555        -299.315          48.000                                                                                                                                  
G22  23064236.149   121203396.690        3173.777          49.000    23064232.718    94444195.232        2473.075          44.000                                                                                                                                  
G24  24485312.675   128671185.061        1596.399          47.000    24485314.176   100263261.388        1243.948          41.000    24485314.676   100263282.388        1243.948          42.000    24485314.623    96085638.360        1192.312          47.000  
G27  25201485.872   132434680.989       -3877.880          46.000    25201488.070   103195848.569       -3021.727          38.000    25201488.570   103195855.561       -3021.728          41.000    25201488.016    98896023.318       -2896.115          45.000  
G28  21819286.577   114661127.048         548.417          52.000    21819283.682    89346323.435         427.337          44.000                                                                                                                                  
G30  25699828.531   135053514.229       -3355.702          32.000    25699828.638   105236505.365       -2614.798          25.000    25699828.924   105236505.379       -2614.796          37.000    25699827.799   100851625.442       -2506.162          38.000  
G32  23636660.633   124211502.354        2117.942          50.000    23636662.205    96788195.006        1650.345          41.000    23636662.580    96788195.010        1650.345          43.000    23636659.793    92755353.409        1581.544          45.000  
R03  22763384.808   121854195.744       -3565.318          49.000    22763383.629    94775481.112       -2773.026          42.000    22763383.826    94775485.118       -2773.025          42.000  
R05  21750016.094   116266325.268        3842.619          51.000    21750017.828    90429376.711        2988.706          46.000    21750018.006    90429376.713        2988.706          45.000  
R11  21103616.483   112771338.253       -1589.385          52.000    21103617.858    87711045.489       -1236.188          48.000    21103617.823    87711044.482       -1236.187          47.000  
R12  21929333.062   117142556.339        2255.077          47.000    21929333.652    91110905.918        1753.947          45.000    21929333.580    91110912.920        1753.946          44.000  
R19  22626565.309   121036860.234       -3934.414          40.000    22626565.738    94139786.104       -3060.100          39.000    22626565.238    94139782.092       -3060.101          39.000  
R20  19344855.681   103445647.088        -720.562          48.000    19344858.594    80457730.004        -560.437          48.000    19344857.486    80457727.998        -560.437          48.000  
R21  21115345.084   112992481.724        3310.919          52.000    21115346.049    87883039.493        2575.159          48.000    21115346.067    87883045.494        2575.159          47.000  
E01  25408726.512   133523756.277        -251.924          51.000    25408726.690   102310408.840        -193.080          50.000    25408726.887   101009857.539        -190.651          53.000    25408728.245    99709308.877        -188.201          51.000  
E03  25697632.482   135041991.205        1204.100          50.000    25697633.340   103473743.560         922.614          50.000    25697633.733   102158402.444         910.910          52.000    25697634.823   100843065.963         899.140          50.000  
E05  26894816.511   141333224.619       -1561.342          49.000    26894818.048   108294298.145       -1196.317          47.000    26894818.280   106917678.648       -1181.108          49.000    26894819.120   105541059.783       -1165.834          47.000  
E08  25492976.203   133966507.578        3132.125          45.000    25492976.936   102649669.864        2400.108          43.000    25492977.400   101344803.171        2369.590          46.000    25492978.544   100039939.106        2339.231          44.000  
E13  23214994.004   121995614.968         314.845          54.000    23214993.790    93477183.805         241.189          54.000    23214994.165    92288912.614         238.110          56.000    23214995.166    91100646.062         235.068          54.000  
E15  24876825.684   130728611.836       -2311.964          53.000    24876827.275   100168688.969       -1771.433          51.000    24876827.614    98895360.152       -1748.943          53.000    24876828.579    97622031.971       -1726.374          51.000  
E18  17894128.532    94034278.763       -2371.732          56.000    17894128.174    72052234.164       -1817.336          57.000    17894128.353    71136316.673       -1794.201          59.000    17894129.389    70220403.819       -1771.102          57.000  
E21  26410271.651   138786904.266       -2818.724          50.000    26410273.098   106343209.133       -2159.837          49.000    26410273.205   104991390.274       -2132.328          51.000    26410274.116   103639574.048       -2104.854          48.000  
E26  24778490.235   130211841.912        2648.276          51.000    24778491.897    99772722.754        2029.179          48.000    24778492.272    98504425.273        2003.339          51.000    24778493.541    97236129.427        1977.605          49.000  
E31  27457324.777   144289220.442        2356.365          45.000    27457327.279   110559283.475        1805.482          44.000    27457327.511   109153869.712        1782.567          47.000    27457328.440   107748460.578        1759.687          44.000  
C06  39271818.427   204498666.935        -147.491          45.000    39271813.084   158131334.594        -113.910          43.000  
C09  39005890.805   203113920.713         815.076          47.000    39005887.839   157060571.847         630.304          45.000  
C11  21965384.870   114379544.285       -1246.449          50.000    21965382.351    88445511.401        -963.789          52.000  
C16  39130748.762   203764083.692          46.758          47.000    39130748.870   157563324.326          36.157          44.000  
C21  22959667.181   119557035.906         353.875          52.000                                                                  
C22  25199791.942   131221935.516       -2545.426          51.000                                                                  
C23  26316762.517   137038275.084       -3177.078          44.000                                                                  
C28  24309957.984   126588325.461        2941.426          49.000                                                                  
> 2019 09 27 10 04  0.0000000  0 38
G01  20458615.211   107510754.588        1410.321          54.000    20458616.283    83774634.384        1098.952          50.000    20458616.408    83774630.389        1098.952          51.000    20458614.675    80284025.702        1053.116          56.000  
G03  24607236.307   129311900.596        4001.314          46.000    24607237.200   100762528.531        3117.912          41.000    24607237.861   100762531.531        3117.912          43.000    24607238.183    96564092.362        2988.143          41.000  
G08  22039698.527   115819392.304       -2893.836          54.000    22039699.403    90248883.639       -2254.937          47.000    22039700.189    90248886.653       -2254.936          49.000    22039698.206    86488497.193       -2160.921          52.000  
G10  23399944.307   122967542.671       -2851.628          45.000    23399945.254    95818857.186       -2222.048          45.000    23399945.272    95818874.194       -2222.047          47.000    23399942.895    91826418.398       -2129.625          50.000  
G11  20153357.387   105906616.400         552.999          51.000    20153355.011    82524628.962         430.910          49.000                                                                                                                                  
G14  24897744.753   130838540.664        3012.552          43.000    24897743.985   101952109.387        2347.444          37.000                                                                                                                                  
G17  24409707.588   128273875.992        3378.502          45.000    24409705.801    99953658.185        2632.606          39.000    24409706.176    99953665.184        2632.604          42.000                                                                  
G18  19927030.308   104717290.139        -404.572          54.000    19927028.968    81597860.482        -315.248          48.000                                                                                                                                  
G22  23046146.372   121108335.307        3163.748          51.000    23046142.977    94370121.466        2465.259          43.000                                                                                                                                  
G24  24476249.935   128623559.981        1578.596          47.000    24476251.240   100226150.921        1230.073          39.000    24476251.865   100226171.927        1230.074          42.000    24476252.044    96050074.186        1178.716          46.000  
G27  25223630.416   132551052.052       -3879.623          45.000    25223632.596   103286527.186       -3023.088          37.000    25223633.186   103286534.213       -3023.085          41.000    25223632.775    98982923.653       -2897.258          44.000  
G28  21816207.762   114644947.547         530.287          52.000    21816204.814    89333716.032         413.212          45.000                                                                                                                                  
G32  23624614.463   124148198.951        2102.328          50.000    23624615.535    96738867.681        1638.179          40.000    23624616.071    96738867.679        1638.178          42.000    23624613.784    92708081.405        1569.998          46.000  
R03  22783410.569   121961395.055       -3581.104          49.000    22783409.282    94858858.343       -2785.303          43.000    22783409.497    94858862.342       -2785.302          42.000  
R05  21728493.964   116151277.562        3827.240          52.000    21728495.662    90339895.215        2976.747          46.000    21728495.751    90339895.206        2976.745          46.000  
R11  21112614.590   112819422.055       -1616.006          52.000    21112616.073    87748443.995       -1256.892          48.000    21112616.109    87748442.987       -1256.892          48.000  
R12  21916734.168   117075267.940        2230.946          50.000    21916737.045    91058570.430        1735.184          44.000    21916737.081    91058577.425        1735.182          44.000  
R19  22648647.526   121154985.073       -3940.351          39.000    22648648.044    94231660.905       -3064.719          40.000    22648647.705    94231656.913       -3064.718          39.000  
R20  19348955.800   103467572.328        -741.050          47.000    19348958.784    80474782.962        -576.370          49.000    19348957.659    80474780.958        -576.370          49.000  
R21  21096815.193   112893323.764        3299.679          52.000    21096816.086    87805916.654        2566.420          48.000    21096816.140    87805922.648        2566.421          48.000  
E01  25410211.106   133531558.248        -268.070          51.000    25410211.392   102316386.948        -205.348          50.000    25410211.570   101015759.657        -202.753          53.000    25410212.982    99715134.998        -200.152          51.000  
E03  25690799.135   135006084.508        1189.838          50.000    25690800.779   103446230.677         911.638          50.000    25690800.922   102131239.298         900.047          52.000    25690802.101   100816252.556         888.519          49.000  
E05  26903767.588   141380262.524       -1574.394          49.000    26903769.196   108330340.167       -1206.430          47.000    26903769.303   106953262.506       -1191.102          50.000    26903770.232   105576185.482       -1175.731          46.000  
E08  25475106.519   133872600.395        3128.091          46.000    25475107.001   102577715.064        2396.885          43.000    25475107.323   101273763.055        2366.394          46.000    25475108.753    99969813.680        2335.983          43.000  
E13  23213228.849   121986339.320         303.695          54.000    23213228.688    93470076.486         232.712          54.000    23213229.081    92281895.640         229.739          56.000    23213230.046    91093719.437         226.751          54.000  
E15  24890043.043   130798069.024       -2318.543          52.000    24890044.598   100221909.391       -1776.549          51.000    24890044.902    98947904.042       -1753.960          53.000    24890045.867    97673899.330       -1731.371          50.000  
E18  17907807.054    94106160.011       -2420.243          56.000    17907806.751    72107311.988       -1854.461          57.000    17907806.911    71190694.354       -1830.906          59.000    17907807.912    70274081.361       -1807.351          56.000  
E21  26426387.133   138871591.447       -2826.942          51.000    26426388.509   106408099.273       -2166.116          48.000    26426388.705   105055455.535       -2138.590          50.000    26426389.402   103702814.440       -2111.024          47.000  
E26  24763386.586   130132471.289        2643.122          51.000    24763388.177    99711906.300        2025.236          48.000    24763388.552    98444381.905        1999.513          51.000    24763389.678    97176859.150        1973.824          48.000  
E31  27443901.871   144218682.816        2345.931          46.000    27443904.373   110505235.216        1797.655          44.000    27443904.623   109100508.516        1774.690          47.000    27443905.731   107695786.447        1751.892          44.000  
C06  39272684.234   204503175.319        -153.064          45.000    39272678.874   158134820.774        -118.444          43.000  
C09  39001212.105   203089556.259         809.327          47.000    39001208.889   157041731.705         625.803          45.000  
C11  21972603.831   114417134.787       -1259.466          50.000    21972601.257    88474578.764        -973.953          52.000  
C16  39130496.684   203762771.249          40.858          47.000    39130496.863   157562309.464          31.535          44.000  
C21  22957680.646   119546691.421         335.746          52.000                                                                  
C22  25214490.518   131298474.648       -2556.986          50.000                                                                  
C23  26335080.696   137133663.529       -3182.113          43.000                                                                  
C28  24293029.426   126500174.413        2935.284          50.000                                                                  
> 2019 09 27 10 04 30.0000000  0 38
G01  20450614.785   107468712.279        1392.200          55.000    20450615.893    83741874.150        1084.831          50.000    20450616.018    83741870.153        1084.831          52.000    20450614.285    80252630.474        1039.654          56.000  
G03  24584400.553   129191897.237        3998.460          46.000    24584401.732   100669019.437        3115.683          43.000    24584402.286   100669022.439        3115.684          45.000    24584401.661    96474479.388        2985.805          43.000  
G08  22056249.603   115906368.094       -2905.004          54.000    22056250.442    90316656.950       -2263.640          48.000    22056251.157    90316659.956       -2263.640          49.000    22056249.192    86553446.618       -2169.300          53.000  
G10  23416259.082   123053277.631       -2864.365          46.000    23416260.065    95885663.624       -2231.975          45.000    23416260.101    95885680.627       -2231.976          48.000    23416257.867    91890441.200       -2138.865          50.000  
G11  20150255.772   105890316.918         533.145          51.000    20150253.306    82511928.058         415.437          49.000                                                                                                                                  
G14  24880567.458   130748274.481        3004.866          43.000    24880566.957   101881772.188        2341.457          39.000                                                                                                                                  
G17  24390430.450   128172575.863        3374.538          50.000    24390428.824    99874723.045        2629.508          38.000    24390429.271    99874730.046        2629.508          41.000                                                                  
G18  19929397.275   104729728.324        -425.054          54.000    19929395.863    81607552.570        -331.211          48.000                                                                                                                                  
G22  23028113.151   121013570.711        3153.566          50.000    23028109.809    94296278.951        2457.327          44.000                                                                                                                                  
G24  24467289.246   128576471.524        1560.237          44.000    24467290.532   100189458.605        1215.768          40.000    24467291.176   100189479.619        1215.768          42.000    24467291.444    96014910.732        1165.195          47.000  
G27  25245783.323   132667464.993       -3881.695          45.000    25245785.574   103377238.509       -3024.701          39.000    25245786.021   103377245.513       -3024.700          41.000    25245785.413    99069855.274       -2898.471          45.000  
G28  21813231.444   114629306.975         512.042          52.000    21813228.514    89321528.578         398.994          45.000                                                                                                                                  
G32  23612656.245   124085357.662        2086.774          50.000    23612656.906    96689900.433        1626.057          40.000    23612657.531    96689900.431        1626.057          43.000    23612655.798    92661154.492        1558.219          46.000  
R03  22803523.762   122069061.607       -3597.030          50.000    22803522.369    94942598.946       -2797.691          42.000    22803522.547    94942602.952       -2797.691          41.000  
R05  21707057.391   116036685.947        3811.754          50.000    21707058.945    90250768.401        2964.698          46.000    21707059.017    90250768.399        2964.698          45.000  
R11  21121760.135   112868293.729       -1642.468          51.000    21121761.832    87786455.276       -1277.476          47.000    21121761.832    87786454.269       -1277.476          47.000  
R12  21904271.990   117008695.356        2206.857          52.000    21904274.366    91006791.807        1716.448          44.000    21904274.474    91006798.793        1716.447          43.000  
R19  22670763.784   121273291.367       -3946.640          40.000    22670764.069    94323676.906       -3069.610          39.000    22670763.819    94323672.891       -3069.611          39.000  
R20  19353168.869   103490101.581        -761.311          47.000    19353171.835    80492305.701        -592.132          48.000    19353170.763    80492303.699        -592.131          48.000  
