     2.11           OBSERVATION DATA    M (MIXED)           RINEX VERSION / TYPE
teqc  2019Feb25     IGN-RGP             20200603 08:03:25UTCPGM / RUN BY / DATE
Linux 2.6.32-573.12.1.x86_64|x86_64|gcc|Linux 64|=+         COMMENT
teqc  2019Feb25     Administrateur RGP  20200603 08:03:25UTCCOMMENT
teqc  2019Feb25     IGN-RGP             20200603 08:03:20UTCCOMMENT
teqc  2019Feb25     IGN-RGP             20200603 08:03:17UTCCOMMENT
  2.0430      (antenna height)                              COMMENT
 +48.38049068 (latitude)                                    COMMENT
  -4.49659762 (longitude)                                   COMMENT
0065.806      (elevation)                                   COMMENT
BIT 2 OF LLI FLAGS DATA COLLECTED UNDER A/S CONDITION       COMMENT
10004M004 (COGO code)                                       COMMENT
BRST                                                        MARKER NAME
10004M004                                                   MARKER NUMBER
Automatic           IGN                                     OBSERVER / AGENCY
5818R40023          TRIMBLE ALLOY       5.45                REC # / TYPE / VERS
1441017048          TRM57971.00     NONE                    ANT # / TYPE
  4231162.7880  -332746.9200  4745130.6890                  APPROX POSITION XYZ
        2.0431        0.0000        0.0000                  ANTENNA: DELTA H/E/N
     1     1                                                WAVELENGTH FACT L1/2
    22    L1    L2    C1    C2    P1    P2    D1    D2    S1# / TYPES OF OBSERV
          S2    L5    C5    D5    S5    L7    C7    D7    S7# / TYPES OF OBSERV
          L8    C8    D8    S8                              # / TYPES OF OBSERV
    30.0000                                                 INTERVAL
    18                                                      LEAP SECONDS
 SNR is mapped to RINEX snr flag value [0-9]                COMMENT
  L1 & L2: min(max(int(snr_dBHz/6), 0), 9)                  COMMENT
Forced Modulo Decimation to 30 seconds                      COMMENT
  2020     6     3     7     0    0.0000000     GPS         TIME OF FIRST OBS
                                                            END OF HEADER
 20  6  3  7  0  0.0000000  0 32S25G14R07G29G24R06R24G15G02G12G19G10
                                R09R18R17G17R05R16G25G32R15E24E05E31
                                E09E01E26E04E13E33S23S36
 204258192.226 6                  38881796.781
                       259.875                          41.700



 125114018.797 6  97491508.89944  23808419.125
  23808422.395        3001.758                          40.100          26.100



 116146753.933 7  90336386.548 7  21697189.820    21697192.535    21697189.422
  21697192.465        1869.309                          47.600          46.800



 130922450.572 6 102017600.533 6  24913726.047    24913730.875
  24913731.035        3949.227                          38.300          38.200



 110469532.944 7  86080072.491 8  21021624.500    21021630.813
  21021630.594       -2004.062                          47.300          49.600
  82493383.266 8  21021627.988                          51.000


 110709151.436 7                  20746847.734                    20746846.953
                     -2117.711                          44.200



 123580108.822 7  96117901.864 7  23110104.766    23110108.254    23110104.031
  23110107.813       -2642.895                          42.400          43.800



 134462702.173 6 104776252.456 5  25587429.688    25587434.449
  25587435.578       -3815.453                          38.300          33.800



 132786414.832 6                  25268435.414
                      2423.520                          37.400



 104824772.404 8  81681741.118 8  19947507.141    19947509.648
  19947509.406          -2.328                          49.100          50.700



 121102743.387 7  94365825.80145  23045096.438
  23045098.246       -2354.934                          45.200          31.700



 129000459.916 7 100519897.947 6  24547984.711    24547991.027
  24547990.977       -2701.336                          42.200          40.400
  96331529.760 7  24547986.223                          42.100


 126510714.078 6  98397243.123 6  23691395.063    23691396.234    23691395.172
  23691396.875        3326.883                          39.900          38.400



 119056020.531 7  92599120.345 7  22303201.633    22303205.047    22303200.957
  22303205.758        3947.109                          42.800          44.100



 112795541.200 8  87729891.033 7  21078540.563    21078541.559    21078538.996
  21078541.910         874.785                          49.100          47.300



 131962526.955 6 102827996.905 6  25111643.805    25111647.453
  25111647.602       -3050.184                          36.700          37.100



 126213135.394 6  98165778.361 6  23610782.930    23610787.516    23610783.074
  23610786.906       -4558.480                          40.900          40.100



 104729935.566 7  81456623.630 7  19605666.492    19605667.188    19605665.727
  19605667.332         845.684                          45.000          45.700



 109176586.924 7  85072842.673 8  20775649.273    20775655.602
  20775655.305        1960.496                          47.500          48.500
  81528125.958 8  20775653.391                          50.400


 115283027.048 7  89830951.554 7  21937629.078    21937634.406
  21937634.148        1916.234                          47.400          46.500
  86087984.368 7  21937630.875                          47.300


 111462836.256 8  86693326.721 7  20858752.148    20858754.441    20858751.398
  20858754.762       -2418.754                          50.000          47.500



 133868184.385 7                  25474270.109
                      2430.730                          44.700
  99966543.368 7  25474282.867                          42.800   102574361.125 7
  25474280.168                          43.500   101270464.031 7  25474283.578
                        45.200
 140736845.262 7                  26781330.820
                      1952.070                          44.600
 105095700.346 7  26781332.871                          43.300   107837319.922 7
  26781331.047                          45.200   106466520.930 7  26781334.000
                        46.500
 124899154.958 8                  23767518.586
                       864.645                          51.000
  93268852.223 8  23767519.797                          48.300    95701946.278 8
  23767518.492                          50.300    94485409.553 8  23767520.973
                        51.200
 119109670.422 8                  22665818.109
                      -651.172                          48.500
  88945526.529 8  22665819.398                          48.500    91265837.560 8
  22665816.930                          49.500    90105693.830 8  22665820.102
                        51.200
 128821394.800 8                  24513895.852
                     -1558.031                          50.800
  96197797.793 7  24513896.277                          47.800    98707297.979 8
  24513894.227                          49.500    97452555.687 8  24513897.051
                        50.400
 135089569.365 7                  25706688.000
                      1841.734                          45.400
 100878579.566 7  25706691.238                          42.500   103510194.173 7
  25706689.012                          44.700   102194403.164 7  25706692.000
                        45.200
 137152141.082 7                  26099186.281
                     -2905.570                          46.300
 102418806.407 7  26099186.617                          44.400   105090593.109 7
  26099184.691                          45.800   103754709.055 7  26099187.633
                        47.500
 143338708.928 6                  27276449.266
                      -636.883                          41.900
 107038650.243 6  27276450.719                          40.500   109830955.435 7
  27276449.191                          42.100   108434812.624 7  27276451.906
                        43.300
 148003923.401 6                  28164202.031
                      3045.934                          38.000
 110522372.822 6  28164204.840                          38.800   113405565.955 6
  28164203.426                          41.200   111963955.181 7  28164204.582
                        42.000
 205378269.140 6                  39082193.844
                         5.906                          41.100
 153366789.739 6  39082175.559                          40.200


 201158700.275 7                  38279227.734
                         4.234                          43.600
 150215862.719 6  38279208.305                          41.100


 20  6  3  7  0 30.0000000  0 32S25G14R07G29G24R06R24G15G02G12G19G10
                                R09R18R17G17R05R16G25G32R15E24E05E31
                                E09E01E26E04E13E33S23S36
 204250375.169 6                  38881666.094
                       260.949                          41.900



 125024090.275 6  97421434.74144  23791306.547
  23791309.484        2993.375        2332.537          40.000          24.600



 116091044.942 8  90293057.350 7  21686783.031    21686785.813    21686782.414
  21686785.438        1845.045        1435.021          48.000          46.000



 130803974.308 6 101925281.378 6  24891181.078    24891185.285
  24891185.648        3949.105        3077.253          38.900          38.100



 110529824.158 7  86127052.618 8  21033097.680    21033103.730
  21033103.836       -2015.449       -1570.330          47.100          50.000
  82538405.890 8  21033101.145       -1504.896          50.800


 110773038.422 7                  20758820.836                    20758820.023
                     -2141.043                          43.900



 123659699.745 6  96179805.891 7  23124988.109    23124991.992    23124987.848
  23124991.344       -2662.951       -2071.170          41.600          43.500



 134577136.414 6 104865422.034 5  25609205.555    25609209.777
  25609210.547       -3813.785       -2971.635          41.700          34.200



 132713776.118 6 103413431.11542  25254611.703
  25254615.754        2418.828        1884.882          36.300          16.300



 104825091.026 8  81681989.399 8  19947567.703    19947570.176
  19947570.094         -18.945         -14.554          49.300          50.500



 121173647.518 7  94421075.73045  23058588.953
  23058590.848       -2372.000       -1848.112          44.600          30.500



 129081610.305 6 100583132.005 6  24563426.930    24563432.883
  24563433.281       -2708.910       -2110.639          38.300          40.000
  96392129.066 6  24563428.230       -2022.720          40.900


 126410934.779 6  98319637.014 6  23672710.344    23672711.152    23672709.543
  23672711.672        3324.927        2586.036          39.700          39.000



 118937773.336 7  92507150.316 7  22281050.984    22281053.715    22281049.676
  22281054.066        3936.075        3061.390          44.000          44.300



 112769707.397 8  87709798.092 7  21073712.164    21073714.414    21073711.363
  21073714.105         847.896         659.481          49.600          46.800



 132054153.923 6 102899394.423 6  25129078.656    25129084.063
  25129083.516       -3058.227       -2382.896          36.800          37.500



 126349904.604 6  98272154.389 6  23636368.617    23636372.602    23636368.051
  23636372.602       -4559.611       -3546.352          40.800          40.600



 104704753.389 7  81437037.502 7  19600952.219    19600952.105    19600951.438
  19600953.246         833.235         648.078          45.200          45.200



 109117977.307 7  85027172.859 8  20764495.805    20764502.766
  20764502.254        1946.668        1517.098          46.600          48.200
  81484359.044 8  20764499.988        1453.897          50.300


 115225783.676 7  89786346.334 7  21926736.063    21926741.281
  21926740.914        1899.859        1480.636          47.000          46.800
  86045237.702 7  21926737.730        1418.935          47.000


 111535512.728 8  86749852.849 7  20872352.297    20872354.750    20872352.117
  20872355.262       -2426.278       -1887.112          50.200          47.500



 133795304.996 7                  25460400.820
                      2427.711                          43.300
  99912120.439 6  25460413.863        1813.020          41.400   102518518.433 7
  25460411.543        1860.298          42.400   101215331.222 7  25460414.848
      1836.679          44.100
 140678438.895 7                  26770216.859
                      1941.520                          45.300
 105052085.199 7  26770218.738        1450.015          43.600   107792566.989 7
  26770216.746        1487.846          44.600   106422336.887 7  26770219.648
      1468.923          46.600
 124873320.285 8                  23762602.508
                       857.520                          50.500
  93249560.106 8  23762603.605         640.461          48.800    95682150.891 8
  23762602.285         657.167          50.300    94465865.792 8  23762604.813
       648.813          51.300
 119129419.326 8                  22669576.305
                      -665.516                          48.900
  88960274.074 8  22669577.332        -496.781          48.300    91280969.829 8
  22669575.121        -509.745          49.300    90120633.749 8  22669578.184
      -503.265          50.600
 128868207.384 8                  24522803.820
                     -1563.031                          51.200
  96232755.227 8  24522804.453       -1167.069          48.300    98743167.348 8
  24522802.332       -1197.512          49.500    97487969.081 8  24522805.203
     -1182.284          50.200
 135034480.926 7                  25696204.648
                      1830.633                          44.700
 100837442.197 6  25696208.102        1367.223          41.900   103467983.634 7
  25696206.250        1402.886          45.100   102152729.202 7  25696209.016
      1385.064          45.500
 137239390.857 7                  26115789.242
                     -2911.223                          46.400
 102483960.450 7  26115789.980       -2173.826          44.100   105157446.821 7
  26115788.320       -2230.563          45.700   103820712.925 7  26115790.742
     -2202.197          47.000
 143358037.427 6                  27280127.383
                      -651.742                          41.500
 107053083.862 6  27280129.020        -486.470          40.900   109845765.590 6
  27280127.262        -499.177          41.200   108449434.518 7  27280129.996
      -492.820          43.600
 147912540.940 6                  28146812.742
                      3045.980                          39.100
 110454132.712 6  28146814.754        2274.697          38.100   113335545.824 6
  28146813.203        2334.009          39.700   111894825.068 6  28146816.090
      2304.362          41.000
 205378089.505 6                  39082159.734
                         5.828                          41.200
 153366655.813 6  39082141.305           4.425          39.700


 201158568.928 7                  38279202.719
                         4.395                          43.200
 150215768.206 6  38279183.141           3.218          40.600


 20  6  3  7  1  0.0000000  0 32S25G14R07G29G24R06R24G15G02G12G19G10
                                R09R18R17G17R05R16G25G32R15E24E05E31
                                E09E01E26E04E13E33S23S36
 204242545.936 6                  38881534.813
                       261.090                          41.800



 124934421.262 6  97351562.77743  23774242.961
  23774246.266        2984.633        2325.768          39.600          23.900



 116036074.266 7  90250302.372 7  21676514.320    21676516.773    21676513.617
  21676516.477        1820.431        1415.905          47.800          46.800



 130685500.933 6 101832964.431 6  24868635.531    24868640.676
  24868640.703        3949.012        3077.181          39.000          38.000



 110590455.736 7  86174297.980 8  21044635.258    21044641.852
  21044641.434       -2026.609       -1579.100          47.000          49.600
  82583682.681 8  21044638.832       -1513.299          50.800


 110837635.078 7                  20770926.438                    20770924.844
                     -2164.592                          44.900



 123739904.069 6  96242187.028 7  23139987.844    23139990.691    23139986.727
  23139990.094       -2683.306       -2087.019          41.400          42.600



 134691512.744 6 104954546.300 5  25630971.000    25630975.977
  25630976.570       -3811.477       -2970.090          36.900          34.300



 132641279.128 6 103356939.98042  25240815.625
  25240819.742        2414.238        1881.240          36.300          17.800



 104825907.069 8  81682625.260 8  19947723.391    19947725.813
  19947725.410         -35.312         -27.423          48.700          50.700



 121245061.946 7  94476723.30145  23072178.719
  23072180.969       -2388.820       -1861.263          44.800          31.400



 129162985.328 6 100646541.076 6  24578912.461    24578918.465
  24578918.555       -2716.121       -2116.407          40.000          40.600
  96452896.086 6  24578913.703       -2028.240          41.400


 126311218.757 6  98242080.142 6  23654035.625    23654037.270    23654036.707
  23654037.824        3322.835        2584.431          40.900          39.200



 118819866.013 7  92415444.675 7  22258962.344    22258965.766    22258961.480
  22258966.055        3924.703        3052.573          44.300          44.500



 112744693.768 8  87690343.055 8  21069037.102    21069039.801    21069037.020
  21069040.066         820.582         638.222          49.100          48.000



 132146015.863 6 102970975.123 6  25146559.266    25146564.207
  25146564.039       -3065.852       -2388.952          38.800          37.200



 126486708.130 6  98378557.078 6  23661960.578    23661963.969    23661960.121
  23661964.766       -4560.638       -3547.152          41.100          38.900



 104679949.930 7  81417745.927 7  19596308.672    19596309.156    19596308.141
  19596309.906         820.712         638.335          45.000          45.300



 109059782.277 7  84981826.096 8  20753421.820    20753429.039
  20753428.055        1933.133        1506.345          46.800          48.400
  81440901.743 8  20753426.031        1443.589          50.300


 115169033.412 7  89742125.375 7  21915936.828    21915941.984
  21915941.797        1883.637        1467.822          47.500          47.000
  86002859.272 7  21915938.473        1406.673          47.100


 111608419.547 8  86806558.132 7  20885996.047    20885997.652    20885995.473
  20885998.629       -2433.921       -1893.062          50.100          47.100



 133722513.745 7                  25446549.805
                      2425.055                          44.000
  99857763.368 7  25446563.219        1810.847          43.300   102462743.390 7
  25446561.012        1858.097          44.200   101160265.180 7  25446563.477
      1834.465          46.100
 140620348.239 7                  26759162.711
                      1931.211                          45.600
 105008705.828 7  26759164.273        1442.180          43.600   107748055.967 7
  26759162.313        1479.800          45.200   106378391.694 7  26759165.320
      1460.990          46.800
 124847700.162 8                  23757727.227
                       850.543                          50.200
  93230428.195 8  23757728.375         635.156          49.100    95662519.882 8
  23757726.977         651.725          50.600    94446484.336 8  23757729.461
       643.435          51.700
 119149597.967 8                  22673416.234
                      -679.660                          48.800
  88975342.538 8  22673417.172        -507.439          48.500    91296431.385 8
  22673414.832        -520.685          49.300    90135898.756 8  22673418.047
      -514.058          50.800
 128915169.017 8                  24531740.531
                     -1567.781                          50.600
  96267823.967 8  24531740.879       -1170.736          48.300    98779150.925 8
  24531738.855       -1201.281          49.400    97523495.242 8  24531741.691
     -1186.009          50.400
 134979726.348 7                  25685785.492
                      1819.605                          45.200
 100796554.105 7  25685788.621        1358.906          42.600   103426028.880 7
  25685786.645        1394.354          44.600   102111307.777 7  25685789.508
      1376.649          46.300
 137326807.806 7                  26132423.930
                     -2916.582                          46.000
 102549239.310 7  26132424.602       -2177.956          44.900   105224428.590 7
  26132422.461       -2234.784          46.300   103886843.242 7  26132425.621
     -2206.361          47.400
 143377809.159 7                  27283889.906
                      -666.293                          43.100
 107067848.440 6  27283891.578        -497.480          41.200   109860915.326 6
  27283889.574        -510.442          41.700   108464391.668 7  27283892.430
      -503.957          44.000
 147821156.763 6                  28129422.656
                      3046.289                          39.000
 110385891.423 6  28129425.750        2274.689          38.900   113265524.191 6
  28129422.684        2334.057          39.700   111825693.594 6  28129425.422
      2304.387          41.800
 205377910.015 6                  39082125.609
                         6.039                          41.700
 153366521.816 6  39082107.102           4.487          39.800


 201158438.583 7                  38279178.047
                         4.180                          43.100
 150215670.561 6  38279158.293           3.318          41.400


 20  6  3  7  1 30.0000000  0 32S25G14R07G29G24R06R24G15G02G12G19G10
                                R09R18R17G17R05R16G25G32R15E24E05E31
                                E09E01E26E04E13E33S23S36
 204234713.548 7                  38881397.672
                       261.477                          42.600



 124845014.226 6  97281894.97643  23757229.789
  23757232.555        2976.020        2318.936          39.400          22.600



 115981844.848 7  90208123.951 7  21666382.977    21666387.195    21666383.227
  21666386.035        1795.683        1396.641          47.300          47.200



 130567033.223 6 101740651.900 6  24846091.727    24846097.047
  24846097.223        3948.758        3077.030          38.300          38.700



 110651427.021 7  86221808.047 8  21056237.711    21056244.082
  21056243.898       -2037.941       -1587.913          46.500          49.900
  82629213.167 8  21056241.461       -1521.751          50.900


 110902938.786 7                  20783164.406                    20783162.953
                     -2188.139                          43.700



 123820719.277 6  96305043.223 6  23155101.227    23155102.422    23155099.930
  23155103.133       -2703.574       -2102.782          41.900          41.700



 134805829.235 6 105043624.087 5  25652724.898    25652730.449
  25652729.762       -3809.512       -2968.447          37.600          34.600



 132568927.505 6 103300562.19742  25227048.500
  25227051.691        2409.363        1877.421          37.900          17.400



 104827219.924 8  81683648.256 8  19947972.867    19947975.656
  19947975.242         -51.914         -40.325          48.900          50.700



 121316984.160 7  94532766.55545  23085865.367
  23085867.008       -2405.730       -1874.470          44.300          31.100



 129244582.569 6 100710123.333 6  24594439.656    24594445.141
  24594445.785       -2723.492       -2122.162          39.200          40.100
  96513829.065 6  24594441.707       -2033.752          41.700


 126211567.509 6  98164573.579 6  23635374.594    23635377.672    23635374.301
  23635376.555        3320.666        2582.763          39.600          40.100



 118702304.234 7  92324007.787 7  22236938.797    22236942.871    22236938.434
  22236942.676        3913.125        3043.537          44.700          44.500



 112720502.665 8  87671527.759 7  21064517.133    21064519.484    21064516.172
  21064519.133         793.117         616.869          49.600          47.200



 132238110.309 6 103042736.950 6  25164085.648    25164089.414
  25164089.211       -3073.816       -2394.960          38.300          36.400



 126623542.572 6  98484983.817 6  23687558.695    23687562.098    23687558.730
  23687562.289       -4561.611       -3547.900          41.100          39.900



 104655526.073 7  81398749.571 7  19591736.594    19591736.781    19591735.879
  19591737.750         808.065         628.503          44.900          45.500



 109002003.256 7  84936803.493 8  20742427.109    20742433.809
  20742433.211        1919.180        1495.522          47.900          48.300
  81397755.076 8  20742430.875        1433.228          50.500


 115112779.124 7  89698290.867 7  21905231.781    21905237.215
  21905236.926        1866.945        1454.903          47.000          46.600
  85960851.190 7  21905233.703        1394.294          47.200


 111681556.630 8  86863442.479 7  20899682.781    20899684.738    20899682.047
  20899685.289       -2441.592       -1899.022          49.500          47.500



 133649811.726 7                  25432714.789
                      2421.961                          44.400
  99803472.933 7  25432727.836        1808.630          42.400   102407036.660 7
  25432725.117        1855.806          42.600   101105266.576 7  25432728.539
      1832.224          45.100
 140562575.528 7                  26748168.672
                      1920.648                          45.400
 104965563.876 7  26748170.551        1434.247          44.400   107703788.584 7
  26748168.313        1471.651          44.800   106334687.028 7  26748171.523
      1452.947          46.700
 124822295.168 8                  23752892.727
                       843.281                          50.000
  93211456.929 8  23752893.941         629.788          48.800    95643053.711 8
  23752892.605         646.232          50.000    94427265.608 8  23752895.059
       638.010          51.300
 119170206.681 8                  22677337.773
                      -693.961                          49.200
  88990732.162 8  22677338.875        -518.142          48.100    91312222.469 8
  22677336.680        -531.666          49.200    90151489.114 8  22677339.715
      -524.911          50.400
 128962279.801 8                  24540705.313
                     -1572.770                          50.500
  96303004.074 8  24540705.707       -1174.439          48.500    98815248.777 8
  24540703.672       -1205.086          49.300    97559134.224 8  24540706.602
     -1189.764          50.600
 134925308.082 7                  25675430.047
                      1808.430                          44.800
 100755917.138 7  25675433.098        1350.531          42.200   103384331.829 7
  25675431.125        1385.724          44.100   102070140.776 7  25675433.926
      1368.133          45.700
 137414390.946 7                  26149090.578
                     -2922.070                          46.900
 102614642.272 7  26149091.477       -2182.074          43.900   105291537.733 7
  26149089.723       -2238.995          45.600   103953099.288 7  26149092.219
     -2210.524          46.600
 143398024.348 7                  27287736.922
                      -681.137                          42.400
 107082944.147 6  27287738.496        -508.510          41.200   109876404.843 6
  27287736.359        -521.757          41.500   108479684.288 7  27287739.371
      -515.138          43.700
 147729773.606 6                  28112033.984
                      3046.121                          39.600
 110317650.741 5  28112033.738        2274.580          35.900   113195503.394 6
  28112034.051        2334.011          40.700   111756562.842 6  28112036.520
      2304.326          40.900
 205377731.593 7                  39082091.313
                         5.973                          42.800
 153366388.614 6  39082073.238           4.446          39.700


 201158307.644 7                  38279153.422
                         4.391                          43.100
 150215570.707 6  38279133.219           3.367          41.000


 20  6  3  7  2  0.0000000  0 32S25G14R07G29G24R06R24G15G02G12G19G10
                                R09R18R17G17R05R16G25G32R15E24E05E31
                                E09E01E26E04E13E33S23S36
 204226861.065 6                  38881255.453
                       262.063                          41.600



 124755871.617 6  97212433.19443  23740265.781
  23740269.563        2967.164        2312.042          39.000          23.200



 115928358.558 8  90166523.505 7  21656392.109    21656395.098    21656391.555
  21656394.383        1770.943        1377.409          48.000          46.200



 130448573.670 6 101648345.790 6  24823549.930    24823554.813
  24823555.289        3948.352        3076.773          38.000          37.300



 110712737.543 7  86269582.477 8  21067904.852    21067911.305
  21067911.188       -2049.207       -1596.741          47.300          49.700
  82674996.985 8  21067908.625       -1530.199          50.900


 110968946.222 7                  20795533.711                    20795532.473
                     -2211.542                          44.600



 123902141.554 7  96368371.628 7  23170327.813    23170329.746    23170326.012
  23170329.992       -2723.777       -2118.500          42.000          42.900



 134920083.935 6 105132653.590 5  25674466.578    25674471.129
  25674471.723       -3807.379       -2966.781          39.900          33.500



 132496723.694 6 103244299.58943  25213308.484
  25213311.254        2404.223        1873.558          37.700          18.600



 104829029.157 8  81685058.059 8  19948317.039    19948319.773
  19948319.645         -68.441         -53.192          50.300          50.900



 121389412.068 7  94589203.85845  23099647.984
  23099649.168       -2422.547       -1887.568          45.500          30.900



 129326398.450 6 100773875.944 6  24610008.023    24610015.141
  24610015.715       -2730.746       -2127.761          39.400          40.900
  96574925.295 6  24610010.398       -2039.119          40.900


 126111981.272 6  98087117.642 6  23616727.039    23616727.211    23616725.539
  23616726.891        3318.525        2581.074          41.400          39.400



 118585091.975 7  92232842.737 7  22214981.047    22214984.527    22214980.422
  22214984.961        3901.437        3034.440          44.300          44.300



 112697135.158 8  87653353.043 7  21060150.188    21060152.375    21060149.418
  21060152.492         765.612         595.475          48.500          47.500



 132330435.105 6 103114678.339 6  25181653.883    25181657.813
  25181658.395       -3081.086       -2400.913          38.500          38.200



 126760403.524 6  98591431.165 6  23713161.938    23713164.906    23713161.047
  23713164.965       -4562.392       -3548.510          40.900          40.800



 104631481.624 7  81380048.344 7  19587234.984    19587236.004    19587235.078
  19587236.516         795.369         618.633          45.100          45.900



 108944640.580 7  84892105.301 8  20731511.516    20731518.086
  20731517.398        1905.277        1484.727          47.300          48.100
  81354919.313 8  20731515.004        1422.859          50.300


 115057022.456 7  89654844.104 7  21894621.492    21894627.098
  21894626.793        1850.332        1441.969          46.700          46.700
  85919214.728 7  21894623.477        1381.881          47.200


 111754922.661 8  86920504.908 7  20913412.258    20913414.512    20913411.379
  20913414.863       -2449.212       -1904.934          49.700          47.000



 133577198.601 7                  25418896.820
                      2418.941                          43.300
  99749248.849 6  25418909.949        1806.409          41.500   102351398.037 7
  25418907.516        1853.527          43.200   101050335.230 7  25418910.629
      1829.982          44.600
 140505121.912 7                  26737235.695
                      1909.793                          45.200
 104922660.214 7  26737237.473        1426.277          44.200   107659765.677 7
  26737235.395        1463.482          44.300   106291223.737 7  26737238.414
      1444.887          46.500
 124797104.758 8                  23748099.086
                       836.164                          50.400
  93192645.906 8  23748100.426         624.470          49.100    95623751.974 8
  23748099.070         640.753          50.400    94408209.233 8  23748101.473
       632.615          51.300
 119191244.695 8                  22681341.102
                      -708.277                          49.300
  89006442.361 8  22681342.262        -528.820          48.000    91328342.492 8
  22681340.090        -542.611          48.900    90167404.221 8  22681343.141
      -535.718          50.700
 129009538.684 8                  24549698.305
                     -1577.699                          50.700
  96338294.787 8  24549698.859       -1178.117          48.300    98851460.129 8
  24549696.875       -1208.863          49.600    97594885.248 8  24549699.695
     -1193.482          50.900
 134871227.398 7                  25665138.531
                      1797.160                          44.900
 100715532.282 7  25665141.961        1342.104          42.800   103342893.441 7
  25665139.945        1377.110          45.200   102029229.152 7  25665142.730
      1359.604          46.500
 137502138.173 7                  26165788.516
                     -2927.461                          45.300
 102680167.768 7  26165789.074       -2186.117          43.900   105358772.582 7
  26165787.719       -2243.162          46.300   104019479.473 7  26165789.914
     -2214.646          47.600
 143418682.078 7                  27291667.750
                      -695.863                          42.600
 107098370.377 6  27291669.547        -519.507          40.500   109892233.507 7
  27291667.211        -533.061          42.000   108495311.732 7  27291670.406
      -526.280          43.300
 147638393.011 6                  28094642.672
                      3045.957                          37.300
 110249411.987 6  28094646.957        2274.594          39.600   113125484.510 6
  28094643.043        2333.962          37.300   111687434.053 6  28094647.094
      2304.267          40.700
 205377554.245 6                  39082057.094
                         5.980                          41.700
 153366256.356 6  39082039.398           4.455          39.800


 201158176.549 7                  38279128.188
                         4.410                          44.400
 150215474.876 6  38279108.316           3.174          41.400


 20  6  3  7  2 30.0000000  0 32S25G14R07G29G24R06R24G15G02G12G19G10
                                R09R18R17G17R05R16G25G32R15E24E05E31
                                E09E01E26E04E13E33S23S36
 204218988.242 6                  38881110.750
                       262.637                          41.900



 124666995.276 6  97143178.91143  23723353.891
  23723356.949        2957.973        2305.073          38.300          22.900



 115875617.358 7  90125502.601 7  21646538.773    21646542.164    21646538.820
  21646541.766        1745.969        1357.980          46.900          47.600



 130330124.136 6 101556047.456 6  24801009.805    24801014.332
  24801014.840        3948.148        3076.443          38.600          37.700



 110774385.200 7  86317619.568 8  21079636.156    21079642.172
  21079642.078       -2060.504       -1605.502          47.500          49.400
  82721032.535 8  21079639.605       -1538.599          50.800


 111035653.330 7                  20808034.570                    20808033.328
                     -2234.846                          43.100



 123984166.595 7  96432168.849 7  23185666.055    23185669.609    23185665.145
  23185668.754       -2743.899       -2134.128          42.600          43.800



 135034274.089 6 105221633.000 5  25696196.656    25696201.102
  25696200.852       -3805.305       -2965.206          37.300          32.700



 132424669.484 6 103188153.46243  25199596.250
  25199599.391        2399.137        1869.603          38.800          20.400



 104831332.545 8  81686852.912 8  19948755.461    19948757.926
  19948757.922         -85.000         -66.065          49.800          50.300



 121462342.243 7  94646032.55245  23113525.914
  23113527.996       -2439.406       -1900.614          45.200          30.900



 129408429.210 6 100837795.989 6  24625618.742    24625624.734
  24625625.313       -2737.832       -2133.378          41.200          40.300
  96636182.022 6  24625620.203       -2044.488          41.100


 126012459.889 6  98009712.149 6  23598089.094    23598091.363    23598088.414
  23598090.773        3316.300        2579.335          40.800          40.100



 118468233.292 7  92141952.683 7  22193089.352    22193092.930    22193088.570
  22193093.168        3889.498        3025.164          44.500          45.000



 112674591.918 8  87635819.425 7  21055937.711    21055939.086    21055936.324
  21055939.320         738.097         574.062          48.800          46.100



 132422986.928 6 103186796.527 6  25199263.906    25199270.203
  25199270.168       -3088.934       -2406.753          37.200          36.000



 126897286.292 6  98697895.505 6  23738768.703    23738772.934    23738767.949
  23738771.668       -4563.121       -3549.078          41.400          39.500



 104607816.028 7  81361641.781 7  19582805.000    19582805.621    19582804.461
  19582806.301         782.706         608.765          44.200          45.800



 108887694.222 8  84847731.534 7  20720674.406    20720681.473
  20720680.891        1891.273        1473.857          48.000          47.900
  81312394.454 8  20720678.773        1412.454          50.300


 115001764.744 7  89611786.175 7  21884106.656    21884111.641
  21884111.574        1833.625        1428.954          46.500          47.000
  85877950.868 7  21884108.367        1369.415          47.300


 111828515.709 8  86977743.919 7  20927184.336    20927186.520    20927183.469
  20927186.684       -2456.803       -1910.834          50.000          47.000



 133504673.966 7                  25405094.750
                      2415.992                          43.300
  99695090.869 7  25405108.867        1804.171          42.000   102295827.229 7
  25405106.391        1851.242          43.300   100995470.843 7  25405109.758
      1827.700          45.000
 140447988.104 7                  26726363.531
                      1899.074                          44.800
 104879995.349 7  26726365.320        1418.271          43.900   107615987.812 7
  26726362.973        1455.269          43.700   106248002.362 7  26726366.105
      1436.784          45.800
 124772128.052 8                  23743346.250
                       829.008                          50.800
  93173994.480 8  23743347.453         619.112          48.700    95604613.981 8
  23743346.113         635.268          50.600    94389314.521 8  23743348.563
       627.198          51.000
 119212710.851 8                  22685426.086
                      -722.707                          48.800
  89022472.283 7  22685427.227        -539.505          47.700    91344790.592 8
  22685425.004        -553.576          49.000    90183643.239 8  22685428.020
      -546.547          49.800
 129056944.343 8                  24558719.336
                     -1582.734                          50.200
  96373695.104 7  24558719.684       -1181.805          47.600    98887783.917 8
  24558717.645       -1212.629          48.900    97630747.307 8  24558720.691
     -1197.215          50.100
 134817485.293 7                  25654911.828
                      1785.707                          44.700
 100675400.272 7  25654915.375        1333.605          42.900   103301714.501 7
  25654912.914        1368.406          44.800   101988573.677 7  25654916.008
      1351.010          46.300
 137590047.016 7                  26182516.977
                     -2933.000                          46.300
 102745813.917 7  26182517.449       -2190.161          44.100   105426131.260 7
  26182515.156       -2247.308          45.700   104085981.884 7  26182518.480
     -2218.728          46.500
 143439781.106 7                  27295683.063
                      -710.621                          43.100
 107114126.105 6  27295684.297        -530.499          40.500   109908400.269 7
  27295682.367        -544.362          42.300   108511272.994 7  27295685.516
      -537.445          44.100
 147547016.343 6                  28077255.742
                      3045.668                          40.400
 110181176.246 6  28077257.656        2274.440          38.900   113055468.656 6
  28077256.227        2333.766          41.200   111618308.249 7  28077258.391
      2304.097          42.100
 205377376.313 6                  39082022.719
                         5.801                          41.900
 153366123.360 6  39082005.473           4.393          39.900


 201158041.924 7                  38279102.625
                         4.371                          43.900
 150215374.826 6  38279083.363           3.096          40.800


 20  6  3  7  3  0.0000000  0 32S25G14R07G29G24R06R24G15G02G12G19G10
                                R09R18R17G17R05R16G25G32R15E24E05E31
                                E09E01E26E04E13E33S23S36
 204211104.683 6                  38880967.734
                       263.199                          41.800



 124578387.978 6  97074134.27244  23706491.547
  23706495.410        2949.133        2298.119          38.400          24.600



 115823624.282 7  90085063.539 8  21636827.055    21636829.391    21636826.055
  21636829.281        1721.025        1338.568          47.600          48.000



 130211687.545 6 101463759.227 6  24778472.219    24778476.918
  24778476.934        3947.668        3076.127          37.700          37.200



 110836369.907 7  86365919.315 8  21091431.469    21091437.848
  21091437.523       -2071.730       -1614.203          47.000          49.400
  82767319.780 8  21091435.023       -1546.938          50.600


 111103057.712 7                  20820666.695                    20820665.328
                     -2257.956                          44.600



 124066791.474 7  96496432.621 7  23201117.430    23201121.086    23201116.664
  23201120.020       -2763.757       -2149.582          43.200          43.800



 135148397.694 6 105310560.409 5  25717913.750    25717917.930
  25717918.031       -3803.109       -2963.361          38.800          31.300



 132352768.571 6 103132126.86743  25185914.680
  25185917.051        2394.043        1865.589          39.900          20.900



 104834130.167 8  81689032.879 8  19949287.938    19949290.637
  19949290.344        -101.402         -78.843          49.000          51.000



 121535772.002 7  94703250.51545  23127499.789
  23127500.949       -2455.891       -1913.490          45.800          30.700



 129490672.255 6 100901881.455 6  24641269.102    24641274.762
  24641275.027       -2744.855       -2138.784          40.200          39.600
  96697597.238 6  24641270.648       -2049.681          41.100


 125913004.482 6  97932357.957 6  23579463.070    23579466.328    23579462.781
  23579465.195        3314.159        2577.654          39.300          38.900



 118351733.117 7  92051341.460 7  22171265.070    22171268.598    22171264.473
  22171268.977        3877.545        3015.865          43.500          45.100



 112652874.943 8  87618928.440 7  21051878.914    21051881.137    21051878.297
  21051881.223         710.598         552.697          49.200          47.500



 132515763.690 6 103259090.049 6  25216920.227    25216925.051
  25216924.922       -3096.469       -2412.543          36.900          36.100



 127034187.652 6  98804374.324 6  23764378.922    23764382.965    23764378.125
  23764382.215       -4563.637       -3549.490          41.000          39.700



 104584530.099 7  81343530.491 7  19578446.227    19578446.414    19578445.219
  19578447.141         770.101         598.973          45.400          45.700



 108831165.354 7  84803683.068 7  20709917.594    20709924.082
  20709923.617        1877.406        1463.040          47.900          47.800
  81270181.336 8  20709921.469        1402.103          50.300


 114947008.658 7  89569119.107 7  21873686.258    21873692.246
  21873691.719        1816.809        1415.931          47.000          47.000
  85837061.592 7  21873688.621        1356.947          47.300


 111902335.779 8  87035159.506 7  20940998.570    20941000.645    20940997.840
  20941000.902       -2464.341       -1916.711          50.200          47.200



 133432238.513 7                  25391311.922
                      2413.063                          43.400
  99640999.492 6  25391324.227        1801.997          41.700   102240324.741 7
  25391321.969        1849.001          42.300   100940673.914 7  25391325.512
      1825.498          44.800
 140391176.178 7                  26715552.242
                      1888.426                          44.900
 104837570.846 7  26715554.387        1410.291          43.600   107572456.583 7
  26715552.066        1447.080          44.400   106205024.514 7  26715555.145
      1428.686          46.100
 124747365.477 8                  23738634.141
                       821.914                          50.600
  93155502.942 8  23738635.324         613.820          48.800    95585640.061 8
  23738634.031         629.838          50.400    94370581.794 8  23738636.426
       621.836          51.500
 119234605.324 8                  22689592.273
                      -736.871                          49.200
  89038822.036 8  22689593.645        -550.115          48.100    91361566.870 8
  22689591.480        -564.469          48.900    90200206.246 8  22689594.410
      -557.287          50.000
 129104496.706 8                  24567768.102
                     -1587.539                          50.400
  96409204.971 8  24567768.734       -1185.400          48.300    98924220.130 8
  24567766.633       -1216.323          49.200    97666720.345 8  24567769.602
     -1200.861          50.000
 134764084.065 7                  25644749.617
                      1774.313                          45.100
 100635522.807 7  25644753.160        1325.170          44.000   103260796.714 7
  25644750.871        1359.755          44.000   101948176.065 7  25644753.844
      1342.441          45.900
 137678116.339 7                  26199276.164
                     -2938.340                          45.500
 102811579.953 7  26199276.617       -2194.105          44.000   105493612.907 7
  26199274.914       -2251.305          46.300   104152605.723 7  26199277.492
     -2222.708          47.300
 143461321.420 7                  27299782.141
                      -725.285                          43.200
 107130211.388 6  27299783.453        -541.462          41.500   109924905.141 7
  27299781.309        -555.567          43.200   108527568.072 7  27299784.504
      -548.525          44.700
 147455646.175 6                  28059868.766
                      3045.586                          40.000
 110112945.359 6  28059871.363        2274.282          38.900   112985457.837 6
  28059868.023        2333.636          38.400   111549187.399 6  28059871.473
      2303.948          41.100
 205377198.790 6                  39081989.641
                         5.953                          41.300
 153365990.572 6  39081971.797           4.413          39.000


 201157912.342 7                  38279078.453
                         4.184                          44.300
 150215279.425 6  38279058.684           3.324          41.100


 20  6  3  7  3 30.0000000  0 32S25G14R07G29G24R06R24G15G02G12G19G10
                                R09R18R17G17R05R16G25G32R15E24E05E31
                                E09E01E26E04E13E33S23S36
 204203207.332 6                  38880819.094
                       263.250                          41.900



 124490051.996 6  97005301.04644  23689682.383
  23689685.773        2939.996        2291.030          38.900          24.700



 115772381.858 7  90045208.327 7  21627254.117    21627256.547    21627253.656
  21627256.777        1695.992        1319.105          47.400          46.800



 130093266.652 6 101371483.176 6  24755937.648    24755942.289
  24755942.641        3946.930        3075.675          37.600          37.900



 110898691.189 7  86414481.328 8  21103290.750    21103297.445
  21103296.879       -2083.000       -1622.920          46.600          49.300
  82813858.372 8  21103294.211       -1555.304          50.700


 111171155.923 7                  20833427.273                    20833426.074
                     -2281.080                          44.000



 124150012.741 7  96561160.262 7  23216680.508    23216683.840    23216679.250
  23216682.883       -2783.593       -2165.023          43.000          42.300



 135262453.475 6 105399434.972 5  25739617.922    25739622.504
  25739621.926       -3800.805       -2961.565          37.400          31.900



 132281023.472 6 103076221.66643  25172261.461
  25172264.938        2388.797        1861.539          40.200          23.200



 104837421.081 8  81691597.219 8  19949914.180    19949916.578
  19949916.477        -117.980         -91.649          49.300          50.700



 121609698.858 7  94760855.83245  23141567.336
  23141569.031       -2472.609       -1926.402          45.100          32.200



 129573124.390 6 100966129.811 6  24656959.094    24656965.422
  24656965.617       -2752.078       -2144.223          41.600          39.400
  96759168.584 6  24656961.445       -2054.845          41.600


 125813615.546 6  97855055.419 7  23560851.813    23560854.699    23560851.164
  23560853.621        3311.906        2575.916          41.000          42.100



 118235596.545 7  91961013.015 7  22149508.680    22149511.652    22149508.367
  22149512.500        3865.326        3006.366          44.200          44.000



 112631985.331 8  87602680.976 7  21047975.742    21047977.594    21047974.766
  21047977.523         682.957         531.198          49.500          47.400



 132608762.652 6 103331556.787 6  25234618.438    25234622.102
  25234622.297       -3103.867       -2418.323          37.100          38.000



 127171103.935 6  98910864.678 6  23789992.305    23789995.789    23789991.293
  23789995.465       -4564.098       -3549.851          41.900          40.700



 104561623.868 7  81325714.540 7  19574158.094    19574158.199    19574157.199
  19574159.027         757.479         589.129          45.000          45.900



 108775054.659 8  84759960.430 8  20699240.102    20699246.707
  20699246.195        1863.332        1452.185          49.000          48.600
  81228280.496 8  20699243.957        1391.659          50.400


 114892756.190 7  89526844.445 7  21863362.930    21863368.168
  21863367.949        1799.898        1402.828          47.300          46.600
  85796548.387 7  21863364.789        1344.371          47.800


 111976381.629 8  87092750.671 7  20954855.273    20954857.215    20954854.453
  20954857.809       -2471.805       -1922.495          49.900          47.100



 133359892.468 7                  25377545.633
                      2409.941                          44.100
  99586974.831 6  25377558.020        1799.759          41.500   102184890.770 7
  25377555.422        1846.712          43.700   100885944.609 7  25377558.727
      1823.230          45.600
 140334687.597 7                  26704803.180
                      1877.484                          44.800
 104795387.818 7  26704804.926        1402.224          43.300   107529173.137 7
  26704802.816        1438.782          44.500   106162291.280 7  26704805.645
      1420.490          46.200
 124722816.849 8                  23733962.844
                       814.656                          50.200
  93137171.172 8  23733963.863         608.494          48.800    95566830.062 8
  23733962.500         624.375          50.100    94352010.906 8  23733964.977
       616.441          51.300
 119256927.615 8                  22693840.211
                      -751.246                          49.000
  89055491.274 7  22693841.438        -560.755          47.700    91378670.966 8
  22693839.305        -575.415          48.600    90217092.915 8  22693842.246
      -568.089          49.800
 129152195.125 8                  24576845.039
                     -1592.453                          50.100
  96444823.902 8  24576845.512       -1189.038          48.500    98960768.261 8
  24576843.340       -1220.058          49.000    97702803.878 8  24576846.340
     -1204.550          50.600
 134711025.222 7                  25634652.930
                      1762.836                          44.700
 100595901.006 7  25634656.313        1316.615          43.000   103220141.291 7
  25634654.184        1350.970          44.700   101908037.450 7  25634656.988
      1333.788          46.500
 137766344.427 7                  26216065.281
                     -2943.711                          45.700
 102877464.522 7  26216065.676       -2198.044          44.400   105561216.212 7
  26216063.895       -2255.376          45.500   104219349.660 7  26216066.773
     -2226.698          47.400
 143483302.438 7                  27303964.820
                      -740.043                          42.800
 107146625.764 6  27303966.324        -552.435          41.200   109941747.761 7
  27303964.551        -566.844          42.100   108544196.552 7  27303967.414
      -559.635          44.000
 147364284.652 6                  28042482.297
                      3045.109                          38.600
 110044720.914 6  28042484.848        2274.039          37.900   112915453.585 6
  28042483.590        2333.375          41.600   111480073.061 6  28042485.406
      2303.688          41.900
 205377021.507 6                  39081955.078
                         5.785                          41.700
 153365857.787 6  39081938.238           4.392          39.000


 201157791.164 7                  38279053.734
                         4.027                          44.500
 150215180.263 6  38279034.234           3.283          41.700


 20  6  3  7  4  0.0000000  0 32S25G14R07G29G24R06R24G15G02G12G19G10
                                R09R18R17G17R05R16G25G32R15E24E05E31
                                E09E01E26E04E13E33S23S36
 204195300.160 7                  38880665.906
                       263.941                          42.000



 124401989.768 6  96936681.15644  23672924.664
  23672927.883        2931.023        2283.891          38.800          24.900



 115721891.782 7  90005938.295 8  21617821.633    21617825.406    21617821.395
  21617824.848        1670.874        1299.573          47.200          48.200



 129974863.652 6 101279221.135 6  24733405.961    24733410.582
  24733410.852        3946.402        3075.130          37.900          36.000



 110961347.685 7  86463304.535 8  21115213.828    21115220.258
  21115220.004       -2094.059       -1631.634          47.100          50.000
  82860647.267 8  21115217.566       -1563.642          50.800


 111239944.063 7                  20846319.086                    20846317.719
                     -2304.002                          43.800



 124233826.765 7  96626348.913 6  23232354.133    23232356.242    23232353.266
  23232356.836       -2803.349       -2180.364          43.900          41.800



 135376438.732 6 105488254.690 5  25761308.555    25761312.699
  25761312.953       -3798.316       -2959.759          38.300          33.800



 132209436.548 6 103020439.74443  25158639.008
  25158642.168        2383.520        1857.384          39.200          20.400



 104841204.317 8  81694545.207 8  19950633.992    19950636.504
  19950636.313        -134.250        -104.448          48.900          50.200



 121684120.380 7  94818846.59045  23155729.438
  23155731.121       -2488.855       -1939.223          45.400          30.700



 129655782.116 6 101030538.408 6  24672687.336    24672694.406
  24672695.109       -2758.699       -2149.512          41.200          39.600
  96820893.494 6  24672690.066       -2059.964          41.400


 125714293.464 6  97777804.983 6  23542251.016    23542253.195    23542251.184
  23542253.027        3309.638        2574.170          40.400          41.200



 118119827.901 7  91870970.797 7  22127821.539    22127825.637    22127820.793
  22127825.449        3852.985        2996.758          43.200          45.800



 112611924.263 8  87587077.937 7  21044226.734    21044228.789    21044225.836
  21044228.707         655.341         509.707          49.200          47.500



 132701982.032 6 103404195.207 6  25252357.156    25252361.613
  25252361.117       -3110.902       -2424.018          37.400          36.700



 127308030.424 6  99017363.027 6  23815606.641    23815609.594    23815606.246
  23815610.004       -4564.374       -3550.058          41.400          39.300



 104539097.565 7  81308194.076 7  19569940.805    19569940.809    19569940.098
  19569942.074         744.777         579.274          44.800          45.900



 108719362.483 8  84716563.973 8  20688642.711    20688648.711
  20688648.152        1849.477        1441.287          48.200          48.600
  81186692.209 8  20688646.156        1381.234          50.200


 114839009.102 7  89484963.614 7  21853135.352    21853140.637
  21853140.066        1783.090        1389.641          46.900          47.600
  85756412.584 7  21853136.969        1331.751          47.300


 112050652.182 8  87150516.655 7  20968753.898    20968755.820    20968753.496
  20968756.441       -2479.296       -1928.349          50.100          47.000



 133287635.693 7                  25363794.367
                      2407.020                          42.600
  99533016.905 7  25363808.309        1797.528          43.200   102129525.266 7
  25363805.375        1844.419          42.900   100831282.877 7  25363808.734
      1820.968          45.300
 140278523.523 7                  26694115.125
                      1866.727                          45.300
 104753447.137 7  26694117.145        1394.115          44.000   107486138.325 7
  26694115.156        1430.478          44.200   106119803.529 7  26694117.938
      1412.287          46.100
 124698481.718 8                  23729331.820
                       807.625                          50.200
  93118998.827 8  23729333.047         603.174          48.900    95548183.672 8
  23729331.758         618.904          50.400    94333601.543 8  23729334.168
       611.039          51.300
 119279677.001 8                  22698169.172
                      -765.418                          48.300
  89072479.448 7  22698170.598        -571.411          47.800    91396102.297 8
  22698168.359        -586.312          48.800    90234302.672 8  22698171.309
      -578.862          50.400
 129200038.685 8                  24585949.398
                     -1597.199                          49.800
  96480551.227 8  24585949.902       -1192.647          48.400    98997427.608 8
  24585947.730       -1223.767          48.700    97738997.213 8  24585950.668
     -1208.212          50.100
