     3.03           OBSERVATION DATA    M                   RINEX VERSION / TYPE
sbf2rin-12.3.1                          20181106 200225 UTC PGM / RUN BY / DATE
BRUX                                                        MARKER NAME
13101M010                                                   MARKER NUMBER
GEODETIC                                                    MARKER TYPE
ROB                 ROB                                     OBSERVER / AGENCY
3001376             SEPT POLARX4TR      2.9.6               REC # / TYPE / VERS
00464               JAVRINGANT_DM   NONE                    ANT # / TYPE
  4027881.8478   306998.2610  4919498.6554                  APPROX POSITION XYZ
        0.4689        0.0000        0.0010                  ANTENNA: DELTA H/E/N
G   14 C1C L1C S1C C1W S1W C2W L2W S2W C2L L2L S2L C5Q L5Q  SYS / # / OBS TYPES
       S5Q                                                  SYS / # / OBS TYPES
E   12 C1C L1C S1C C5Q L5Q S5Q C7Q L7Q S7Q C8Q L8Q S8Q      SYS / # / OBS TYPES
R   12 C1C L1C S1C C2P L2P S2P C2C L2C S2C C3Q L3Q S3Q      SYS / # / OBS TYPES
C    6 C2I L2I S2I C7I L7I S7I                              SYS / # / OBS TYPES
SEPTENTRIO RECEIVERS OUTPUT ALIGNED CARRIER PHASES.         COMMENT
NO FURTHER PHASE SHIFT APPLIED IN THE RINEX ENCODER.        COMMENT
G L1C                                                       SYS / PHASE SHIFT
G L2W                                                       SYS / PHASE SHIFT
G L2L  0.00000                                              SYS / PHASE SHIFT
G L5Q  0.00000                                              SYS / PHASE SHIFT
E L1C  0.00000                                              SYS / PHASE SHIFT
E L5Q  0.00000                                              SYS / PHASE SHIFT
E L7Q  0.00000                                              SYS / PHASE SHIFT
E L8Q  0.00000                                              SYS / PHASE SHIFT
R L1C                                                       SYS / PHASE SHIFT
R L2P  0.00000                                              SYS / PHASE SHIFT
R L2C                                                       SYS / PHASE SHIFT
R L3Q  0.00000                                              SYS / PHASE SHIFT
C L2I                                                       SYS / PHASE SHIFT
C L7I                                                       SYS / PHASE SHIFT
    30.000                                                  INTERVAL
  2018    11     6    19     0    0.0000000     GPS         TIME OF FIRST OBS
  2018    11     6    19    59   30.0000000     GPS         TIME OF LAST OBS
    43                                                      # OF SATELLITES
 C1C    0.000 C2C    0.000 C2P    0.000                     GLONASS COD/PHS/BIS
DBHZ                                                        SIGNAL STRENGTH UNIT
 11 R03  5 R04  6 R05  1 R06 -4 R13 -2 R14 -7 R15  0 R16 -1 GLONASS SLOT / FRQ #
    R22 -3 R23  3 R24  2                                    GLONASS SLOT / FRQ #
                                                            END OF HEADER
> 2018 11 06 19 00  0.0000000  0 31
C05  40278058.411 5 209738433.88205        35.000    40278053.546 6 162183054.61506        38.500
C10  39899167.919 6 207765467.14406        36.500    39899163.943 6 160657440.43806        40.000
C14  23592315.462 7 122851404.37907        43.500    23592312.173 8  94996489.69408        48.500
C18  40682893.411 6 211846535.82906        36.500
C24  22035687.055 8 114745651.85508        52.000
C25  25987556.245 5 135324023.84505        33.000
C26  22200013.345 8 115601347.71408        51.000
C29  25871433.174 6 134719354.13106        39.000
E07  25651683.364 7 134800539.63407        44.000    25651687.670 7 100662776.93007        47.250    25651683.773 7 103288744.64507        47.250    25651685.037 8 101975746.29508        50.250
E11                                                                                                                                                  27029845.740 4 107454466.60604        28.250
E19  25311692.795 6 133013852.19406        40.250    25311694.166 7  99328538.68907        43.250    25311690.663 7 101919704.00907        43.750    25311691.779 7 100624126.35407        46.500
E20  22407731.374 7 117753428.36707        42.250
E21  26253644.414 7 137963840.23007        42.000    26253648.089 7 103024969.13807        45.750    26253643.944 7 105712563.02407        44.750    26253645.515 8 104368764.09308        48.250
E27  23151127.336 8 121660042.13008        49.500    23151130.364 8  90850070.76308        53.750    23151126.610 8  93220054.38108        53.750    23151127.924 9  92035060.07809        56.750
E30  23301645.064 7 122451035.38307        46.000    23301647.971 8  91440752.57208        49.750    23301644.130 8  93826142.79508        49.750    23301645.456 8  92633444.18908        52.750
G05  24148980.351 6 126903771.43806        40.750    24148980.329 4        25.250    24148979.790 4  98886051.56404        25.250    24148980.141 6  98886040.56606        38.250
G13  20319006.082 8 106777151.40808        49.750    20319005.854 7        45.000    20319003.204 7  83202982.91307        45.000
G15  20676737.504 8 108657012.53008        52.000    20676737.526 7        45.000    20676734.835 7  84667802.19907        45.000    20676735.039 8  84667808.19908        48.250
G17  24268008.736 6 127529257.27106        41.500    24268008.602 4        24.250    24268006.582 4  99373434.55304        24.250    24268006.694 6  99373437.56506        36.750
G20  23406070.701 6 122999735.42506        38.750    23406069.865 3        21.500    23406066.916 3  95843935.49703        21.500
G24  22372616.851 7 117568919.09607        43.000    22372616.904 5        32.500    22372617.253 5  91612143.13305        32.500    22372617.696 7  91612138.13907        44.500    22372618.980 8  87794975.92608        49.750
G28  21738049.490 8 114234256.86708        48.000    21738048.851 6        38.000    21738046.420 6  89013715.22306        38.000
G30  23566304.820 7 123841837.95007        42.500    23566304.279 4        27.750    23566305.325 4  96500173.15004        27.750    23566305.080 6  96500169.15806        40.250    23566306.201 7  92479341.91407        45.000
R03  22941264.290 6 122806392.15306        40.250    22941265.059 6  95516116.36606        41.500    22941265.419 6  95516110.36006        40.750
R04  19474276.830 8 104283877.09908        51.500    19474276.741 8  81109702.06708        51.000    19474276.717 8  81109716.06608        50.000
R05  20382278.367 8 108954963.83708        50.250    20382278.949 8  84742767.68308        49.250    20382278.957 8  84742756.67808        48.500
R13  21776089.506 6 116283164.21706        40.250    21776090.214 6  90442485.75506        41.750    21776091.152 6  90442488.76606        41.500
R14  19214800.198 8 102425753.70108        51.250    19214802.036 8  79664504.85308        51.000    19214802.163 8  79664490.85008        50.250
R15  20245911.746 8 108188052.54008        48.500    20245915.017 6  84146269.22206        41.500    20245915.248 6  84146273.23906        41.250
R22  23189673.405 6 123788048.07506        41.000    23189674.671 6  96279604.97606        40.250    23189675.328 6  96279539.98106        40.000
R23  23544646.016 6 125947984.26606        39.750    23544649.992 5  97959556.99105        33.000    23544649.033 5  97959481.98705        33.500
> 2018 11 06 19 00 30.0000000  0 30
C05  40277819.057 5 209737186.71405        35.250    40277814.444 6 162182090.20406        39.000
C10  39904948.095 6 207795567.92306        36.250    39904944.786 6 160680716.26906        39.750
C14  23609438.688 7 122940574.52907        43.500    23609436.004 8  95065441.69308        48.750
C18  40689124.585 6 211878983.54706        37.000
C24  22028015.764 8 114705704.83808        52.000
C25  25970063.784 6 135232938.21606        36.750
C26  22208952.503 8 115647895.73308        50.750
C29  25869661.063 6 134710122.58206        40.250
E07  25667148.955 7 134881813.17407        44.500    25667153.408 7 100723468.19107        47.250    25667149.499 7 103351019.15407        47.000    25667151.002 8 102037229.18008        50.250
E19  25299844.542 6 132951590.19106        40.000    25299846.079 7  99282044.34107        43.250    25299842.708 7 101871996.76607        44.000    25299843.715 7 100577025.55807        46.500
E20  22409671.722 7 117763624.58407        42.500
E21  26238274.096 7 137883069.18407        42.250    26238277.555 7 102964653.13007        45.000    26238274.037 7 105650673.56307        45.750    26238275.251 8 104307661.34708        48.250
E27  23148160.709 8 121644452.24008        49.250    23148163.712 8  90838428.96608        53.250    23148159.933 8  93208108.88508        53.750    23148161.261 9  92023266.43109        56.500
E30  23313447.820 7 122513059.77607        45.750    23313450.839 8  91487069.48708        49.500    23313447.012 8  93873667.97708        49.500    23313448.313 8  92680365.23608        52.500
G05  24170159.828 7 127015065.86707        43.500    24170159.779 3        23.500    24170157.457 3  98972774.47603        23.500    24170157.592 6  98972763.49406        36.250
G13  20324751.754 8 106807344.77108        49.500    20324751.522 7        45.000    20324748.886 7  83226510.20007        45.000
G15  20669901.148 8 108621087.32608        52.000    20669901.170 7        44.750    20669898.480 7  84639808.53107        44.750    20669898.785 8  84639814.52008        48.250
G17  24252352.505 6 127446983.77106        41.750    24252352.376 4        24.000    24252350.456 4  99309325.37804        24.000    24252350.780 6  99309328.37306        37.250
G20  23395270.466 6 122942983.26606        38.500    23395269.653 3        22.000    23395267.657 3  95799713.04603        22.000
G24  22356385.317 7 117483620.80707        42.500    22356385.352 5        32.500    22356385.902 5  91545676.95605        32.500    22356385.670 7  91545671.96207        44.500    22356386.973 8  87731279.17208        49.500
G28  21747504.151 7 114283941.48407        47.750    21747503.517 6        37.750    21747501.054 6  89052430.50906        37.750
G30  23584154.530 7 123935638.50907        42.500    23584153.976 4        27.500    23584154.973 4  96573264.47304        27.500    23584154.960 6  96573260.48006        39.750    23584156.096 7  92549387.76107        45.000
R03  22966166.459 6 122939702.53506        40.250    22966168.299 6  95619802.20706        41.000    22966168.363 6  95619796.19006        40.500
R04  19484042.697 8 104336171.82308        52.000    19484042.357 8  81150375.72308        50.750    19484042.170 8  81150389.72208        50.000
R05  20368506.764 8 108881348.31208        49.750    20368507.442 8  84685511.16208        49.000    20368507.530 8  84685500.16308        48.500    20368591.658 7  81668348.76317        43.500
R13  21795989.466 6 116389431.94006        40.500    21795990.414 6  90525138.43606        41.000    21795990.739 6  90525141.42706        40.500
R14  19217884.532 8 102442195.04508        51.500    19217886.418 8  79677292.56608        51.250    19217886.510 8  79677278.56608        50.500
R15  20232582.290 8 108116824.16808        48.500    20232585.235 6  84090869.39806        41.250    20232585.751 6  84090873.38806        41.000
R22  23192181.497 6 123801434.60906        41.750    23192182.441 6  96290016.73406        40.250    23192181.976 6  96289951.71606        40.250
R23  23527759.931 6 125857653.80006        41.750    23527763.616 5  97889299.99405        33.000    23527761.442 5  97889225.00605        33.000
> 2018 11 06 19 01  0.0000000  0 31
C05  40277579.035 5 209735937.49405        35.500    40277574.677 6 162181124.23306        38.750
C10  39910730.373 5 207825682.16605        35.500    39910727.916 6 160704002.52006        39.750
C14  23626613.258 7 123030006.04207        43.000    23626610.599 8  95134595.79308        48.500
C18  40695352.565 6 211911416.86106        36.250
C24  22020407.309 8 114666085.91408        52.000
C25  25952586.963 5 135141942.76905        33.000
C26  22217944.533 8 115694720.00808        51.000
C29  25867982.415 6 134701383.19706        40.250
E07  25682652.132 7 134963282.53207        44.500    25682656.434 7 100784305.67407        46.750    25682652.850 7 103413443.70307        47.250    25682654.091 8 102098860.19608        50.000
E11                                                                                                                                                  27044622.794 4 107513211.63804        28.000
E19  25288043.470 6 132889574.36006        40.250    25288044.892 7  99235733.81607        43.250    25288041.379 7 101824478.13907        43.500    25288042.521 7 100530110.98407        46.500
E20  22411685.367 7 117774206.94307        42.750
E21  26222936.944 7 137802471.10107        42.500    26222940.721 7 102904466.25707        45.500    26222936.851 7 105588916.60607        45.750    26222938.172 8 104246689.44008        48.500
E27  23145259.770 8 121629207.89608        49.500    23145262.794 8  90827045.21008        53.500    23145259.023 8  93196428.15808        53.750    23145260.350 9  92011734.18909        56.500
E30  23325290.032 7 122575290.66307        46.000    23325292.906 8  91533540.59608        49.500    23325289.241 8  93921351.37908        49.500    23325290.471 8  92727442.49408        52.500
G05  24191352.147 6 127126435.39606        39.500    24191352.080 4        24.500    24191350.779 4  99059555.93704        24.500    24191351.832 6  99059544.93406        39.250
G13  20330586.567 8 106838007.50908        50.000    20330586.339 7        44.750    20330583.754 7  83250403.24307        44.750
G15  20663156.832 8 108585646.49208        52.000    20663156.845 7        45.250    20663154.316 7  84612192.29607        45.250    20663154.684 8  84612198.29208        48.500
G17  24236739.593 7 127364936.89207        42.500    24236739.482 4        24.000    24236737.880 4  99245392.77604        24.000    24236737.335 6  99245395.74806        36.750
G20  23384568.823 6 122886742.52806        38.750    23384568.010 3        22.000    23384565.369 3  95755889.08703        22.000
G24  22340198.068 7 117398555.76707        43.000    22340198.117 5        32.500    22340198.289 5  91479392.52205        32.500    22340198.452 7  91479387.53107        43.750    22340199.792 8  87667756.59308        49.750
G28  21757042.535 8 114334066.39508        48.000    21757041.901 6        38.000    21757039.441 6  89091488.88606        38.000
G30  23602024.969 7 124029547.24007        42.500    23602024.428 4        28.000    23602025.102 4  96646440.09704        28.000    23602024.805 6  96646436.10106        40.250    23602026.048 7  92619514.39907        44.500
R03  22991105.424 6 123073198.17806        41.750    22991106.100 6  95723632.10406        40.500    22991105.847 6  95723626.11606        40.500
R04  19493945.713 8 104389201.74508        52.000    19493945.168 8  81191621.20408        50.750    19493945.299 8  81191635.20008        49.750
R05  20354851.279 8 108808350.72008        50.250    20354851.720 8  84628735.24508        49.000    20354851.854 8  84628724.24908        48.500
R13  21815924.114 6 116495881.99806        39.250    21815925.592 6  90607932.91706        41.250    21815926.140 6  90607935.90606        41.250
R14  19221075.832 8 102459205.70008        51.750    19221077.547 8  79690523.07908        51.250    19221077.729 8  79690509.07608        50.500
R15  20219345.930 8 108046090.47808        49.000    20219348.544 6  84035854.31006        41.500    20219348.496 6  84035858.31006        41.000
R22  23194837.227 6 123815613.01206        41.500    23194838.227 6  96301044.39406        40.500    23194838.922 6  96300979.40306        40.000
R23  23510961.988 6 125767797.61706        40.000    23510965.622 5  97819411.85905        32.250    23510962.945 5  97819336.85005        33.250
> 2018 11 06 19 01 30.0000000  0 30
C05  40277338.315 5 209734686.33405        35.250    40277334.381 6 162180156.74006        38.750
C10  39916515.788 5 207855809.57005        34.500    39916513.964 6 160727298.91706        39.250
C14  23643837.483 7 123119696.84407        43.500    23643834.731 8  95203950.39808        48.750
C18  40701578.412 5 211943835.64805        35.250
C24  22012861.918 8 114626795.22508        52.250
C25  25935131.344 5 135051038.30505        35.750
C26  22226989.675 8 115741819.33308        50.750
C29  25866398.356 6 134693136.51906        38.750
E07  25698192.116 7 135044946.61207        44.000    25698196.748 7 100845288.57407        47.000    25698192.976 7 103476017.46407        47.000    25698194.205 8 102160638.52608        50.000
E19  25276289.279 6 132827806.18306        40.500    25276290.734 7  99189608.22707        43.250    25276287.399 7 101777149.27107        44.000    25276288.383 7 100483383.75507        46.500
E20  22413772.661 7 117785175.48707        42.500
E21  26207632.280 7 137722046.72007        42.500    26207636.185 7 102844409.11907        46.000    26207632.221 7 105527292.73807        45.250    26207633.623 8 104185848.93408        48.500
E27  23142424.604 8 121614308.79008        49.750    23142427.582 8  90815919.26508        53.500    23142423.813 8  93185011.96908        53.750    23142425.140 9  92000463.12209        56.750
E30  23337171.057 7 122637726.70807        46.250    23337174.101 8  91580164.91308        49.500    23337170.315 8  93969191.98108        49.500    23337171.648 8  92774674.95308        52.500
G05  24212559.844 7 127237877.51907        43.250    24212559.840 4        24.750    24212558.111 4  99146393.87204        24.750    24212557.160 5  99146382.91405        35.750
G13  20336510.865 8 106869139.65608        50.000    20336510.637 7        44.500    20336507.997 7  83274662.05007        44.500
G15  20656505.253 8 108550691.26308        51.500    20656505.266 7        45.250    20656502.519 7  84584954.45507        45.250    20656502.998 8  84584960.45508        48.500
G17  24221170.243 7 127283119.44507        42.750    24221170.123 4        24.000    24221168.249 4  99181638.93904        24.000    24221168.187 6  99181641.93906        36.750
G20  23373963.597 6 122831014.79006        40.000    23373962.779 3        22.250    23373961.135 3  95712464.87403        22.250
G24  22324055.072 7 117313724.96907        46.000    22324055.130 5        35.000    22324055.240 5  91413290.60105        35.000    22324055.546 7  91413285.60807        44.250    22324057.010 8  87604408.93008        49.750
G28  21766664.214 7 114384629.65907        47.500    21766663.575 6        38.000    21766661.286 6  89130888.83406        38.000
G30  23619915.098 7 124123563.04207        42.000    23619914.580 4        27.000    23619915.366 4  96719699.14804        27.000    23619915.866 6  96719695.15406        39.500    23619916.824 7  92689720.98607        44.500
R03  23016078.040 6 123206875.71406        40.750    23016078.386 6  95827603.51406        40.500    23016078.349 6  95827597.50806        40.750
R04  19503985.347 8 104442965.25008        51.750    19503985.114 8  81233437.25608        50.500    19503985.199 8  81233451.25008        49.750
R05  20341311.568 8 108735974.60708        50.000    20341312.590 8  84572442.72108        49.500    20341312.333 8  84572431.72508        48.750
R13  21835892.857 6 116602511.68406        40.250    21835894.212 7  90690867.12807        42.000    21835894.398 6  90690870.11306        41.750
R14  19224373.376 8 102476783.75808        51.750    19224375.171 8  79704194.90508        51.000    19224375.094 8  79704180.90808        50.500
R15  20206201.526 8 107975852.61208        49.000    20206204.415 6  83981224.87106        41.500    20206204.748 6  83981228.87806        41.250
R22  23197642.479 6 123830583.01806        41.000    23197642.941 6  96312687.74906        41.000    23197643.601 6  96312622.74906        41.000
R23  23494254.199 6 125678420.02806        41.500    23494257.704 5  97749895.98405        33.000    23494255.809 5  97749820.94805        32.500
> 2018 11 06 19 02  0.0000000  0 30
C05  40277098.401 5 209733433.09105        35.000    40277093.428 6 162179187.66106        38.750
C10  39922305.563 5 207885949.99205        35.000    39922301.686 6 160750605.39306        40.000
C14  23661111.625 7 123209645.01907        43.000    23661108.451 8  95273504.01308        48.500
C18  40707801.144 5 211976239.72605        35.250
C24  22005379.616 8 114587832.98608        52.000
C25  25917691.167 5 134960225.58005        33.750
C26  22236087.088 8 115789192.57908        50.500
C29  25864909.997 6 134685383.03106        39.000
E07  25713769.718 7 135126804.36807        43.750    25713773.793 7 100906416.09807        47.000    25713769.896 7 103538739.62607        47.000    25713771.276 8 102222563.36908        50.000
E19  25264582.669 6 132766287.06706        40.250    25264584.088 7  99143668.65107        43.500    25264580.770 7 101730011.27007        44.000    25264581.724 7 100436844.96607        46.750
E20  22415933.432 7 117796530.61207        42.500
E21  26192361.541 7 137641796.82907        42.250    26192364.974 7 102784482.27607        45.250    26192361.372 7 105465802.58807        45.750    26192362.576 8 104125140.43508        48.500
E27  23139655.011 8 121599754.60908        49.750    23139658.030 8  90805050.89108        53.750    23139654.279 8  93173860.07208        53.750    23139655.574 9  91989452.98609        56.750
E30  23349091.059 7 122700366.54407        46.000    23349094.133 8  91626941.41608        49.750    23349090.382 8  94017188.74008        49.500    23349091.634 8  92822061.58508        52.500
G05  24233779.356 6 127349389.30006        38.000    24233779.378 3        23.000    24233776.890 3  99233286.22203        23.000    24233778.057 6  99233275.19206        38.250
G13  20342524.496 8 106900741.16808        50.000    20342524.268 7        44.500    20342521.591 7  83299286.59907        44.500
G15  20649946.042 8 108516223.01808        51.500    20649946.068 7        45.250    20649943.471 7  84558096.07907        45.250    20649943.731 8  84558102.08108        48.500
G17  24205644.816 6 127201534.16706        41.750    24205644.709 4        24.250    24205643.160 4  99118066.01304        24.250    24205642.749 6  99118069.02306        37.000
G20  23363457.051 6 122775801.93206        40.000    23363456.215 3        23.000    23363454.589 3  95669441.88703        23.000
G24  22307957.154 7 117229129.85507        46.000    22307957.207 5        35.000    22307957.591 5  91347372.34305        35.000    22307957.426 7  91347367.35507        44.500    22307959.058 8  87541237.27408        49.750
G28  21776369.368 7 114435629.78207        47.500    21776368.729 6        38.000    21776366.330 6  89170629.18506        38.000
G30  23637826.142 6 124217684.77606        41.750    23637825.606 4        27.000    23637826.222 4  96793040.74104        27.000    23637827.022 6  96793036.74706        39.250    23637827.570 7  92760006.69707        44.500
R03  23041082.928 6 123340731.73006        41.250    23041084.133 6  95931713.70406        41.000    23041084.198 6  95931707.68806        40.500
R04  19514161.897 8 104497460.68008        51.500    19514161.991 8  81275822.59008        50.750    19514161.774 8  81275836.58108        50.000
R05  20327889.159 8 108664223.21308        50.250    20327889.759 8  84516636.07708        49.500    20327889.787 8  84516625.07408        48.500    20327975.477 7  81505497.97317        42.750
R13  21855894.389 6 116709318.98606        39.750    21855895.561 6  90773939.46706        41.750    21855895.718 6  90773942.47006        41.250
R14  19227777.065 8 102494927.78108        51.500    19227778.859 8  79718306.92508        51.250    19227779.022 8  79718292.92808        50.500
R15  20193150.067 8 107906110.78208        48.500    20193153.283 6  83926981.25806        41.750    20193153.997 6  83926985.25906        41.000
R22  23200593.684 6 123846343.99906        41.250    23200595.106 6  96324946.31106        40.000    23200596.246 6  96324881.29706        40.000
R23  23477635.202 6 125589525.51706        39.000    23477639.446 5  97680755.79005        33.750    23477637.864 5  97680680.81605        34.000
> 2018 11 06 19 02 30.0000000  0 30
C05  40276857.600 5 209732177.83305        35.000    40276852.599 6 162178217.02206        39.000
C10  39928096.128 5 207916102.94005        35.500    39928092.870 6 160773921.58606        40.250
C14  23678434.010 7 123299848.53407        43.000    23678431.274 8  95343255.08308        48.250
C18  40714021.121 5 212008628.98905        35.250
C24  21997960.575 8 114549199.30908        51.500
C25  25900269.554 5 134869505.19405        34.500
C26  22245236.990 8 115836838.54308        50.500
C29  25863515.735 6 134678123.23906        39.250
E07  25729382.882 7 135208854.72307        43.750    25729387.488 7 100967687.44907        47.000    25729383.595 7 103601609.35807        46.750    25729384.948 8 102284633.90708        50.000
E19  25252923.518 6 132705018.57506        40.250    25252925.036 7  99097916.18607        43.500    25252921.549 7 101683065.26807        44.000    25252922.697 7 100390495.73407        46.750
E20  22418167.916 7 117808272.46907        42.500
E21  26177123.502 7 137561722.18507        42.500    26177127.622 7 102724686.29007        45.500    26177123.738 7 105404446.70707        45.750    26177125.084 8 104064564.50408        48.500
E27  23136950.969 8 121585545.03408        49.500    23136954.001 8  90794439.84508        53.500    23136950.239 8  93162972.22008        53.750    23136951.570 9  91978703.53809        56.750
E30  23361049.953 7 122763208.82307        45.500    23361052.680 8  91673869.08308        49.250    23361048.820 8  94065340.60608        49.750    23361050.117 8  92869601.34908        52.500
G05  24255012.646 7 127460968.24107        43.750    24255012.686 4        26.000    24255011.061 4  99320230.79304        26.000    24255010.301 6  99320219.81406        38.000
G13  20348627.238 8 106932811.62808        49.750    20348627.010 7        44.750    20348624.381 7  83324276.55607        44.750
G15  20643480.006 8 108482243.29308        51.500    20643480.046 7        45.000    20643477.380 7  84531618.37407        45.000    20643477.464 8  84531624.37208        48.500
G17  24190164.857 6 127120184.26106        41.500    24190164.759 3        23.750    24190162.770 3  99054676.49303        23.750    24190162.920 6  99054679.48906        37.000
G20  23353048.991 6 122721105.74606        39.250    23353048.160 3        22.500    23353046.015 3  95626821.49403        22.500
G24  22291903.986 7 117144771.31307        45.750    22291903.973 5        35.250    22291904.501 5  91281638.42805        35.250    22291904.765 7  91281633.43107        43.750    22291906.174 8  87478242.26608        50.000
G28  21786157.132 7 114487064.46407        47.250    21786156.502 6        37.750    21786154.090 6  89210708.16206        37.750
G30  23655756.836 7 124311911.26407        42.250    23655756.318 4        27.500    23655757.344 4  96866463.95704        27.500    23655757.778 6  96866459.95706        40.000    23655758.555 7  92830370.58107        45.000
R03  23066122.075 6 123474763.14906        41.750    23066122.460 6  96035960.32006        41.000    23066122.182 6  96035954.32806        40.750
R04  19524475.187 8 104552686.40708        51.750    19524475.006 8  81318775.91308        50.750    19524474.798 8  81318789.91008        50.000
R05  20314584.076 8 108593100.18908        50.000    20314584.812 8  84461318.16708        49.500    20314584.941 8  84461307.16108        48.500
R13  21875928.360 6 116816300.69406        40.500    21875929.865 7  90857147.44807        42.000    21875930.119 6  90857150.44706        40.750
R14  19231286.764 8 102513636.17008        51.500    19231288.600 8  79732857.89108        51.250    19231288.471 8  79732843.89508        50.750
R15  20180192.498 8 107836866.66208        49.000    20180194.999 6  83873124.70806        41.500    20180195.552 6  83873128.70906        40.750
R22  23203695.166 6 123862895.20306        41.500    23203696.396 6  96337819.44406        40.750    23203696.347 6  96337754.44506        41.000
R23  23461109.274 6 125501118.32406        40.500    23461113.040 5  97611994.67505        33.250    23461111.698 5  97611919.67705        33.750
> 2018 11 06 19 03  0.0000000  0 30
C05  40276615.499 5 209730920.63105        34.500    40276611.004 6 162177244.86506        39.000
C10  39933888.072 6 207946268.21406        36.000    39933885.347 6 160797247.29106        40.500
C14  23695805.066 7 123390305.40307        43.000    23695802.290 8  95413202.04608        48.250
C18  40720238.285 5 212041003.30305        35.000
C24  21990604.388 8 114510894.39008        51.750
C25  25882865.352 5 134778877.96405        34.750
C26  22254438.983 8 115884756.13008        50.500
C29  25862216.310 6 134671357.63106        38.500
E07  25745033.323 7 135291096.61707        44.000    25745037.610 7 101029101.82107        46.750    25745033.778 7 103664625.84207        47.000    25745035.046 8 102346849.33808        50.000
E19  25241312.387 6 132644002.10306        40.250    25241313.993 7  99052351.95207        43.500    25241310.603 7 101636312.39407        44.000    25241311.656 7 100344337.17907        46.750
E20  22420475.972 7 117820401.34707        42.500
E21  26161919.599 7 137481823.56107        42.750    26161923.368 7 102665021.75507        45.750    26161919.283 7 105343225.70207        45.500    26161920.726 8 104004121.73508        48.500
E27  23134312.424 8 121571679.70808        49.500    23134315.544 8  90784085.87608        53.500    23134311.769 9  93152348.14409        54.000    23134313.071 9  91968214.51509        56.750
E30  23373046.475 7 122826252.17407        45.750    23373049.339 8  91720946.90608        49.250    23373045.517 8  94113646.54808        49.500    23373046.854 8  92917293.23308        52.500
G05  24276256.712 6 127572611.61806        39.750    24276256.738 3        21.500    24276254.979 3  99407225.63603        21.500    24276255.965 6  99407214.62706        36.250
G13  20354819.321 8 106965350.82608        50.000    20354819.093 7        45.000    20354816.362 7  83349631.77007        45.000
G15  20637106.897 8 108448753.12108        52.000    20637106.937 7        45.000    20637104.405 7  84505522.13207        45.000    20637104.697 8  84505528.13108        48.250
G17  24174729.614 6 127039072.45506        41.750    24174729.498 4        24.750    24174727.811 4  98991472.52204        24.750    24174727.820 6  98991475.52306        37.250
G20  23342739.276 6 122666928.08406        39.250    23342738.440 3        22.750    23342736.037 3  95584605.11303        22.750
G24  22275896.607 7 117060650.15807        45.500    22275896.567 5        35.750    22275896.951 5  91216089.49205        35.750    22275896.817 7  91216084.50207        44.000    22275898.490 8  87415424.53408        50.000
G28  21796027.351 7 114538931.88207        47.250    21796026.730 6        37.250    21796024.133 6  89251124.33206        37.250
G30  23673707.440 7 124406241.39307        42.250    23673706.877 4        26.500    23673707.725 4  96939967.94204        26.500    23673707.409 6  96939963.93806        38.750    23673708.661 7  92900811.90407        44.250
R03  23091191.085 6 123608966.68006        41.000    23091193.122 6  96140340.84606        40.750    23091192.782 6  96140334.84906        40.500
R04  19534924.397 8 104608640.87208        51.750    19534923.958 8  81362296.03208        50.750    19534924.024 8  81362310.03008        49.500
R05  20301397.162 8 108522608.71908        50.250    20301397.653 8  84406491.47308        49.250    20301397.809 8  84406480.46708        48.250
R13  21895995.091 6 116923454.58206        39.500    21895996.151 6  90940489.37406        41.000    21895996.877 6  90940492.36906        40.750
R14  19234901.816 8 102532907.10208        51.500    19234903.786 8  79747846.39708        51.250    19234903.766 8  79747832.39908        50.500
R15  20167327.596 8 107768120.90808        49.000    20167330.016 6  83819655.81406        41.500    20167330.733 6  83819659.80706        41.000
R22  23206942.998 6 123880235.97106        41.000    23206945.043 6  96351306.75006        41.250    23206945.265 6  96351241.74406        40.750
R23  23444673.536 6 125413202.61306        39.500    23444678.128 5  97543615.86905        33.000    23444677.558 5  97543540.85905        34.250
> 2018 11 06 19 03 30.0000000  0 30
C05  40276373.330 5 209729661.47305        35.000    40276368.966 6 162176271.21406        39.000
C10  39939684.052 6 207976445.63706        36.500    39939680.495 6 160820582.38806        40.500
C14  23713225.508 7 123481013.58107        43.500    23713221.810 8  95483343.34308        48.250
C18  40726452.710 5 212073362.51105        34.000
C24  21983311.361 8 114472918.32508        51.750
C25  25865479.959 5 134688344.51705        34.000
C26  22263692.894 8 115932944.12908        50.500
C29  25861012.133 6 134665086.67706        38.250
E07  25760719.273 7 135373528.90907        44.500    25760723.995 7 101090658.39707        47.000    25760720.092 7 103727788.24507        46.750    25760721.462 8 102409208.82608        49.750
E19  25229749.678 6 132583239.16906        40.500    25229751.200 7  99006977.02007        43.500    25229747.823 7 101589753.76007        44.250    25229748.867 7 100298370.39307        46.750
E20  22422857.874 7 117832917.36507        42.500
E21  26146748.942 7 137402101.68307        43.000    26146752.485 7 102605489.20907        45.500    26146748.903 7 105282140.12807        45.750    26146750.067 8 103943812.67308        48.500
E27  23131739.518 8 121558158.31308        49.750    23131742.520 8  90773988.73608        53.500    23131738.711 8  93141987.60008        53.750    23131740.028 9  91957985.67409        56.750
E30  23385080.979 7 122889495.27707        46.000    23385084.044 8  91768173.89408        49.500    23385080.293 8  94162105.54608        49.250    23385081.649 8  92965136.22708        52.250
G05  24297513.756 7 127684316.72407        42.750    24297513.739 4        26.000    24297512.183 4  99494268.57004        26.000    24297512.854 6  99494257.57506        38.000
G13  20361100.365 8 106998358.59308        49.750    20361100.129 7        44.750    20361097.583 7  83375352.09907        44.750
G15  20630827.443 8 108415754.17408        52.000    20630827.483 7        45.500    20630824.919 7  84479808.66507        45.500    20630825.031 8  84479814.66108        48.500
G17  24159340.198 7 126958201.73607        42.250    24159340.078 4        24.000    24159338.006 4  98928456.38604        24.000    24159338.404 6  98928459.40506        36.500
G20  23332528.540 6 122613270.91806        39.500    23332527.686 3        22.750    23332525.377 3  95542794.34803        22.750
G24  22259933.820 7 116976767.58207        46.000    22259933.780 5        35.750    22259934.542 5  91150726.46105        35.750    22259934.643 7  91150721.46807        44.250    22259936.012 8  87352784.96708        50.000
G28  21805979.386 7 114591230.49307        47.250    21805978.760 6        37.750    21805976.180 6  89291876.49706        37.750
G30  23691677.103 7 124500674.06007        42.000    23691676.527 4        26.750    23691677.159 4  97013551.84504        26.750    23691677.422 6  97013547.83406        39.000    23691678.754 7  92971329.80707        44.500
R03  23116294.634 6 123743339.34506        41.500    23116294.682 6  96244852.86306        40.500    23116294.978 6  96244846.85906        40.000
R04  19545509.118 8 104665322.12108        51.750    19545508.763 8  81406381.44408        50.750    19545508.898 8  81406395.43508        49.750
R05  20288329.005 8 108452752.53608        50.000    20288329.654 8  84352158.87408        49.500    20288329.813 8  84352147.87708        48.500
R13  21916092.893 6 117030778.08706        39.500    21916094.574 6  91023963.21406        41.250    21916094.793 6  91023966.19606        41.250
R14  19238622.345 8 102552738.94508        51.500    19238624.104 8  79763271.16408        51.250    19238624.312 8  79763257.16208        50.500
R15  20154556.088 8 107699875.00408        49.000    20154558.852 6  83766575.68706        41.250    20154559.428 6  83766579.68606        41.250
R22  23210339.752 6 123898365.66106        41.250    23210340.704 6  96365407.61706        40.750    23210341.751 6  96365342.59806        40.500
R23  23428331.604 7 125325782.70907        42.250    23428335.533 5  97475622.60605        34.000    23428335.169 5  97475547.58005        34.250
> 2018 11 06 19 04  0.0000000  0 31
C05  40276132.247 5 209728400.31505        35.000    40276126.906 6 162175295.97706        38.750
C10  39945480.894 6 208006634.84106        36.500    39945477.616 6 160843926.60106        40.250
C14  23730693.079 7 123571971.11507        43.250    23730689.371 8  95553677.46108        48.000
C18  40732663.824 5 212105706.43605        35.250
C24  21976081.540 8 114435271.29808        51.750
C25  25848111.590 5 134597905.60105        35.500
C26  22272998.811 8 115981401.39008        50.500
C29  25859902.773 6 134659310.78606        38.750
E07  25776441.863 7 135456150.57607        43.250    25776446.333 7 101152356.36107        46.750    25776442.577 7 103791095.72407        46.750    25776443.852 8 102471711.54808        49.750
E19  25218235.310 6 132522731.15806        40.750    25218236.909 7  98961792.46707        43.750    25218233.521 7 101543390.49407        44.000    25218234.559 7 100252596.48507        46.750
E20  22425313.124 7 117845820.86307        42.000
E21  26131611.818 7 137322557.35407        42.500    26131615.908 7 102546089.23407        45.750    26131612.276 7 105221190.59307        46.000    26131613.383 8 103883637.91908        48.750
E27  23129231.804 8 121544980.48508        49.750    23129234.848 8  90764148.15708        53.500    23129231.029 8  93131890.30608        53.750    23129232.373 9  91948016.73609        56.500
E30  23397153.473 7 122952936.74907        46.000    23397156.693 8  91815549.01908        49.250    23397152.935 8  94210716.54508        49.500    23397154.158 8  93013129.28808        52.250
G05  24318781.730 6 127796080.82606        41.000    24318781.713 3        22.500    24318780.615 3  99581357.42903        22.500    24318780.727 5  99581346.43705        35.250
G10                                                                                                                                                                                  25316446.779 6  99347173.23916        36.500
G13  20367470.620 8 107031834.74508        50.500    20367470.388 7        44.750    20367467.893 7  83401437.40207        44.750
G15  20624641.671 8 108383247.53308        52.250    20624641.711 7        45.250    20624639.104 7  84454478.81607        45.250    20624639.311 8  84454484.81408        48.750
G17  24143997.512 7 126877575.14807        43.000    24143997.405 4        25.000    24143995.122 4  98865630.50404        25.000    24143995.807 6  98865633.49606        36.500
G20  23322417.549 6 122560135.95306        39.000    23322416.709 3        22.500    23322414.560 3  95501390.47003        22.500
G24  22244017.295 7 116893124.09807        45.750    22244017.264 5        35.750    22244017.560 5  91085549.73005        35.750    22244017.946 7  91085544.73807        43.750    22244019.311 8  87290323.93708        50.000
G28  21816012.854 7 114643958.05307        47.500    21816012.211 6        37.500    21816009.871 6  89332962.90706        37.500
G30  23709666.365 6 124595208.13206        41.750    23709665.802 4        26.250    23709666.841 4  97087214.74304        26.250    23709667.052 6  97087210.73906        40.250    23709667.900 7  93041923.41507        44.500
R03  23141424.940 6 123877877.85606        40.500    23141427.920 6  96349493.91706        41.000    23141427.699 6  96349487.91906        40.500
R04  19556229.448 8 104722728.96008        51.500    19556229.169 8  81451031.19408        50.750    19556229.189 8  81451045.18908        49.750
R05  20275380.383 8 108383534.88008        50.000    20275381.181 8  84298322.91308        49.500    20275381.590 8  84298311.91408        48.500
R13  21936221.858 6 117138268.94406        39.500    21936223.963 6  91107567.18506        41.000    21936224.012 6  91107570.18206        40.750
R14  19242447.675 8 102573130.15308        51.500    19242449.452 8  79779130.99708        51.250    19242449.476 8  79779116.99808        50.500
R15  20141878.230 8 107632129.36608        48.750    20141881.176 6  83713884.65306        41.750    20141881.877 6  83713888.63906        41.000
R22  23213883.601 6 123917283.32306        41.250    23213885.037 6  96380121.34206        41.000    23213885.622 6  96380056.34406        40.750
R23  23412083.253 6 125238862.95306        40.750    23412086.645 5  97408018.36305        33.500    23412087.444 5  97407943.33305        33.750
> 2018 11 06 19 04 30.0000000  0 32
C05  40275889.315 5 209727137.12405        35.000    40275884.745 6 162174319.19306        38.750
C10  39951280.670 5 208036835.60005        35.750    39951277.561 6 160867279.72906        40.250
C14  23748207.984 7 123663175.96507        43.250    23748204.262 8  95624202.81108        48.000
C18  40738871.887 5 212138034.99805        35.250
C19  26599458.251 5 138510362.98515        35.750
C24  21968915.349 8 114397953.43408        52.250
C25  25830763.239 5 134507561.87205        34.250
C26  22282355.830 8 116030126.73808        50.500
C29  25858888.663 6 134654030.43206        39.000
E07  25792199.816 7 135538960.46507        43.750    25792204.602 7 101214194.90207        47.000    25792200.780 7 103854547.44607        46.500    25792202.011 8 102534356.67908        49.750
E19  25206770.087 6 132462479.60406        41.000    25206771.412 7  98916799.42907        43.250    25206767.953 7 101497223.72707        44.000    25206769.060 7 100207016.58507        46.500
E20  22427842.418 7 117859111.92507        42.000
E21  26116509.201 7 137243191.28207        42.000    26116513.084 7 102486822.37807        46.000    26116509.156 7 105160377.64507        45.500    26116510.577 8 103823598.02008        48.750
E27  23126789.452 8 121532145.86708        50.000    23126792.474 8  90754563.86708        53.000    23126788.715 8  93122055.99508        53.750    23126790.009 9  91938307.43709        56.250
E30  23409263.651 7 123016575.27007        46.250    23409266.662 8  91863071.28408        49.000    23409262.894 8  94259478.51708        49.250    23409264.153 8  93061271.40708        52.250
G05  24340060.686 7 127907901.19907        43.000    24340060.678 4        24.500    24340058.089 4  99668490.22404        24.500    24340059.720 6  99668479.22706        38.000
G10  25298400.119 5 132944005.08415        32.500                                                                                    25298399.444 5 103592716.74715        32.000    25298399.714 6  99276353.03606        37.500
G13  20373930.214 8 107065779.21008        50.000    20373929.982 7        44.750    20373927.317 7  83427887.61307        44.750
G15  20618549.827 8 108351234.56308        52.000    20618549.867 7        45.500    20618547.243 7  84429533.64407        45.500    20618547.566 8  84429539.64108        48.750
G17  24128701.700 7 126797195.67507        42.750    24128701.589 4        25.000    24128699.566 4  98802997.16104        25.000    24128700.264 6  98803000.17806        37.500
G20  23312405.529 6 122507524.75406        39.500    23312404.707 3        22.750    23312402.973 3  95460394.74803        22.750
G24  22228146.205 7 116809721.37507        46.250    22228146.197 6        36.000    22228146.555 6  91020560.61006        36.000    22228146.533 7  91020555.61407        44.500    22228148.146 8  87228042.69408        50.000
G28  21826128.096 7 114697112.98007        47.500    21826127.466 6        37.500    21826124.954 6  89374382.33106        37.500
G30  23727675.049 7 124689842.49407        42.500    23727674.544 4        27.250    23727675.541 4  97160955.76604        27.250    23727675.332 6  97160951.78606        39.500    23727676.468 7  93112591.90707        44.500
R03  23166590.142 6 124012578.88706        40.750    23166591.658 6  96454261.33606        40.500    23166590.769 6  96454255.34506        40.750
R04  19567085.050 8 104780859.24208        51.750    19567084.619 8  81496243.62808        50.750    19567084.713 8  81496257.62408        50.000
R05  20262552.012 8 108314959.15608        50.250    20262552.820 8  84244986.24708        49.500    20262552.951 8  84244975.24208        48.750    20262638.445 7  81243527.60917        44.250
R13  21956383.005 6 117245923.98906        39.000    21956384.479 6  91191298.88906        41.250    21956385.419 6  91191301.87306        41.500
R14  19246377.689 8 102594079.06908        51.500    19246379.414 8  79795424.60608        51.000    19246379.609 8  79795410.60608        50.500
R15  20129294.426 8 107564884.46208        48.750    20129297.265 6  83661583.07606        41.500    20129297.899 6  83661587.07106        41.250
R22  23217574.050 6 123936988.28106        39.250    23217575.834 6  96395447.43806        40.250    23217576.878 6  96395382.42906        40.250
R23  23395927.940 6 125152447.34006        41.250    23395931.169 5  97340806.22805        31.750    23395931.665 5  97340731.25605        31.250
> 2018 11 06 19 05  0.0000000  0 32
C05  40275645.453 5 209725871.98605        34.750    40275641.670 6 162173340.91606        39.000
C10  39957082.307 5 208067047.66905        35.000    39957079.601 6 160890641.62806        40.750
C14  23765769.740 7 123754626.07607        42.750    23765766.218 8  95694917.81308        48.250
C18  40745077.740 5 212170348.10305        34.500
C19  26582084.844 6 138419896.09906        36.000
C24  21961811.963 8 114360964.84108        52.000
C25  25813431.166 6 134417314.13306        36.250
C26  22291764.582 8 116079119.04208        50.000
C29  25857969.536 6 134649245.97306        38.500
E07  25807994.034 7 135621957.55607        42.750    25807998.452 7 101276173.20907        47.000    25807994.361 7 103918142.58507        46.000    25807995.894 8 102597143.40108        49.500
E19  25195353.580 6 132402485.94706        41.000    25195355.065 7  98871998.97107        43.500    25195351.590 7 101451254.55107        44.250    25195352.659 7 100161631.76407        47.000
E20  22430445.341 7 117872790.71507        42.000
E21  26101440.347 7 137164004.21307        42.250    26101444.079 7 102427689.20007        46.250    26101440.189 7 105099701.85107        45.500    26101441.584 8 103763693.53208        48.750
E27  23124412.388 8 121519654.10808        50.000    23124415.356 8  90745235.60908        53.250    23124411.610 9  93112484.38809        54.000    23124412.908 9  91928857.50509        56.500
E30  23421411.068 7 123080409.46707        45.750    23421413.887 8  91910739.67008        49.000    23421410.053 8  94308390.42808        49.250    23421411.387 8  93109561.55408        52.250
G05  24361349.429 6 128019775.07606        40.500    24361349.425 3        23.500    24361348.803 3  99755664.59503        23.500    24361348.177 6  99755653.61506        38.250
G10  25280405.298 5 132849441.49105        32.000    25280405.236 1         9.500    25280404.730 1 103519035.79411         9.500    25280404.641 5 103519030.79705        32.250    25280404.865 6  99205737.34706        37.500
G13  20380478.622 8 107100191.77208        50.000    20380478.390 7        45.000    20380475.838 7  83454702.58807        45.000
G15  20612552.122 8 108319716.71108        52.000    20612552.157 7        45.500    20612549.577 7  84404974.27607        45.500    20612550.047 8  84404980.27008        48.500
G17  24113453.516 7 126717065.90207        42.250    24113453.391 4        25.250    24113451.481 4  98740558.40604        25.250    24113452.096 6  98740561.40006        37.500
G20  23302494.090 6 122455439.34206        40.000    23302493.263 3        23.500    23302490.951 3  95419808.71503        23.500
G24  22212321.100 7 116726560.14707        46.000    22212321.101 6        36.250    22212321.559 6  90955759.65806        36.250    22212321.757 7  90955754.66807        44.250    22212323.026 8  87165941.78908        50.000
G28  21836323.980 7 114750692.97307        47.750    21836323.350 6        37.750    21836320.996 6  89416132.97406        37.750
G30  23745702.071 6 124784576.01906        41.750    23745701.584 4        27.000    23745702.614 4  97234774.09904        27.000    23745702.404 6  97234770.10806        39.250    23745703.630 7  93183334.47407        44.250
R03  23191783.044 6 124147439.86606        40.500    23191784.172 6  96559153.19306        40.250    23191783.866 6  96559147.18706        40.000
R04  19578074.974 8 104839711.40208        51.750    19578074.834 8  81542017.51808        50.750    19578074.648 8  81542031.51008        49.750
R05  20249844.075 8 108247028.70508        50.250    20249844.912 8  84192151.44808        49.500    20249845.179 8  84192140.45008        48.750
R13  21976574.129 6 117353741.58006        39.500    21976575.295 6  91275157.00106        41.500    21976575.091 6  91275160.01106        41.250
R14  19250411.760 8 102615583.89508        51.500    19250413.653 8  79812150.58408        51.250    19250413.753 8  79812136.58208        50.500
R15  20116804.647 8 107498141.46608        48.750    20116807.174 6  83609671.87106        41.500    20116808.315 6  83609675.86506        41.500
R22  23221414.789 6 123957479.67606        40.500    23221415.281 6  96411385.18206        41.000    23221415.331 6  96411320.17506        41.500
R23  23379869.315 6 125066540.23706        40.500    23379872.101 5  97273989.63105        32.000    23379873.476 5  97273914.58705        32.250
> 2018 11 06 19 05 30.0000000  0 32
C05  40275403.450 5 209724604.88605        34.500    40275398.297 6 162172361.11806        39.000
C10  39962887.331 5 208097270.74105        35.250    39962883.796 6 160914012.03306        40.500
C14  23783378.351 7 123846319.45707        42.750    23783375.286 8  95765820.93308        48.000
C18  40751280.029 5 212202645.54705        34.250
C19  26564725.773 5 138329507.22205        35.000
C24  21954772.053 8 114324305.66808        52.000
C25  25796118.894 5 134327163.02105        34.500
C26  22301223.842 8 116128377.11008        50.250
C29  25857146.422 6 134644957.80106        39.250
E07  25823823.219 7 135705140.66907        43.500    25823827.675 7 101338290.44907        46.500    25823823.854 7 103981880.27607        46.250    25823825.210 8 102660070.86908        49.250
E19  25183986.764 6 132342751.64406        40.750    25183987.931 7  98827392.19207        43.750    25183984.507 7 101405484.12107        44.250    25183985.597 7 100116443.16007        47.000
E20  22433121.971 7 117886857.44507        42.000
E21  26086405.915 7 137084996.89807        42.250    26086409.307 7 102368690.24107        45.250    26086406.012 7 105039163.79807        46.250    26086407.077 8 103703925.02208        48.750
E27  23122100.375 8 121507504.83608        50.000    23122103.406 8  90736163.10008        53.500    23122099.679 8  93103175.20808        53.750    23122100.976 9  91919666.66009        56.750
E30  23433595.141 7 123144438.01207        46.000    23433598.095 8  91958553.19508        49.000    23433594.333 8  94357451.26508        49.250    23433595.633 8  93157998.73608        52.250
G05  24382648.477 7 128131700.04307        42.750    24382648.499 3        22.500    24382645.116 3  99842878.89303        22.500    24382646.272 5  99842867.88605        35.500
G10  25262463.166 5 132755154.35005        32.000    25262463.479 1         9.750    25262462.769 1 103445565.25801         9.750    25262463.379 5 103445560.27505        31.500    25262462.626 6  99135328.13506        37.250
G13  20387115.959 8 107135071.81308        50.000    20387115.727 7        44.750    20387113.278 7  83481881.83407        44.750
G15  20606649.059 8 108288695.24008        52.000    20606649.090 7        45.500    20606646.404 7  84380801.69907        45.500    20606646.581 8  84380807.69008        48.500
G17  24098253.620 7 126637188.76307        42.500    24098253.468 4        25.250    24098251.380 4  98678316.50404        25.250    24098252.097 6  98678319.49106        37.250
G20  23292683.407 6 122403881.69206        39.500    23292682.585 3        23.250    23292679.925 3  95379633.91603        23.250
G24  22196542.292 7 116643641.31307        46.000    22196542.275 6        36.250    22196542.545 6  90891147.58906        36.250    22196542.844 7  90891142.59707        44.750    22196544.253 8  87104021.89208        50.000
G28  21846600.401 7 114804696.09007        47.500    21846599.767 6        37.500    21846597.357 6  89458213.32606        37.500
G30  23763748.063 6 124879407.62206        41.250    23763747.598 4        25.750    23763748.316 4  97308668.83304        25.750    23763748.106 6  97308664.85506        38.750    23763749.450 7  93254150.26107        44.250
R03  23217005.343 6 124282456.53006        40.250    23217006.426 6  96664166.12806        39.750    23217006.819 6  96664160.13006        39.250
R04  19589199.851 8 104899283.67408        52.000    19589199.587 8  81588351.49508        50.500    19589199.701 8  81588365.49108        50.000
R05  20237257.604 8 108179746.90208        50.000    20237258.488 8  84139821.15608        49.500    20237258.403 8  84139810.14908        48.750
R13  21996794.337 6 117461718.71006        39.500    21996795.632 6  91359139.19206        40.500    21996796.276 6  91359142.19306        40.750
R14  19254550.255 8 102637642.92508        52.000    19254551.796 8  79829307.61308        51.000    19254552.099 8  79829293.61308        50.250
R15  20104408.545 8 107431901.87108        48.750    20104411.304 6  83558152.19106        41.500    20104411.937 6  83558156.18206        41.250
R22  23225399.463 6 123978756.39006        41.000    23225401.289 6  96427933.73506        41.750    23225401.482 6  96427868.74206        41.750
R23  23363905.349 6 124981145.90506        40.750    23363909.244 5  97207571.82005        33.500    23363907.966 5  97207496.81505        33.250
> 2018 11 06 19 06  0.0000000  0 32
C05  40275159.507 5                        34.500    40275154.563 6 162171379.81706        38.750
C10  39968693.325 5 208127504.56105        35.250    39968689.308 6 160937390.70606        40.000
C14  23801033.394 7 123938254.09807        43.000    23801030.253 8  95836910.60108        48.000
C18  40757479.468 5 212234927.15405        34.500
C19  26547384.140 6 138239199.07506        36.000
C24  21947795.244 8 114287976.02908        52.000
C25  25778824.774 5 134237109.24505        35.500
C26  22310734.245 8 116177899.81808        50.250
C29  25856418.475 6 134641166.31306        39.500
E07  25839687.684 7 135788508.74907        42.750    25839692.086 7 101400545.80907        46.250    25839688.305 7 104045759.68907        46.500    25839689.601 8 102723138.25508        49.500
E19  25172669.005 6 132283278.15606        41.250    25172670.542 7  98782980.17407        43.750    25172667.041 7 101359913.52307        44.000    25172668.162 7 100071451.85507        46.750
E20  22435872.735 7 117901312.34107        42.250
E21  26071405.740 7 137006170.07707        42.000    26071409.555 7 102309826.06907        46.000    26071405.306 7 104978764.02807        45.750    26071406.934 8 103644293.05708        48.750
E27  23119853.621 8 121495697.66908        50.250    23119856.583 8  90727346.06008        53.250    23119852.862 8  93094128.15808        53.750    23119854.142 9  91910734.61509        56.500
E30  23445815.996 7 123208659.56307        46.250    23445819.085 8  92006510.84408        49.000    23445815.284 8  94406659.98708        49.000    23445816.591 8  93206581.92208        52.000
G05  24403955.498 6 128243673.40406        38.750    24403955.463 3        23.750    24403954.794 3  99930130.82403        23.750    24403955.601 6  99930119.80106        39.000
G10  25244574.150 5 132661146.38105        32.250    25244574.342 1         8.750    25244573.605 1 103372312.34601         8.750    25244573.356 5 103372307.34005        32.000    25244572.997 6  99065127.38406        36.750
G13  20393842.610 8 107170419.31508        50.000    20393842.378 7        44.750    20393839.698 7  83509425.33407        44.750
G15  20600840.487 8 108258171.40708        52.250    20600840.522 7        45.500    20600837.923 7  84357016.88907        45.500    20600838.145 8  84357022.88608        48.500
G17  24083101.994 7 126557567.08607        42.250    24083101.865 4        24.750    24083099.815 4  98616273.66204        24.750    24083099.805 6  98616276.67406        37.500
G20  23282973.034 6 122352852.76106        39.250    23282972.216 3        23.000    23282969.711 3  95339871.11803        23.000
G24  22180809.881 7 116560966.11607        46.000    22180809.868 6        36.250    22180809.905 6  90826725.37306        36.250    22180810.099 7  90826720.37407        44.500    22180811.415 8  87042283.92908        50.000
G28  21856956.890 8 114859120.31908        48.000    21856956.260 6        37.250    21856953.845 6  89500621.81206        37.250
G30  23781811.977 6 124974336.22206        41.000    23781811.504 4        25.500    23781812.236 4  97382639.18004        25.500    23781812.604 6  97382635.18006        39.000    23781813.805 7  93325038.48107        44.500
R03  23242255.682 6 124417626.58506        39.750    23242257.187 6  96769298.35806        40.250    23242257.073 6  96769292.36106        39.500
R04  19600458.668 8 104959574.04508        52.000    19600458.408 8  81635243.99108        50.500    19600458.291 8  81635257.98108        49.750
R05  20224793.511 8 108113116.93508        50.250    20224793.871 8  84087997.83408        49.500    20224794.067 8  84087986.83508        48.750    20224855.927 7  81092056.84717        42.250
R13  22017044.948 6 117569853.45806        39.500    22017046.032 6  91443244.01206        41.250    22017046.067 6  91443247.01406        40.500
R14  19258791.876 8 102660254.38308        51.500    19258793.783 8  79846894.31608        51.000    19258793.686 8  79846880.31308        50.500
R15  20092107.010 8 107366166.25108        48.750    20092109.664 6  83507024.49306        41.500    20092110.467 6  83507028.49106        41.500
R22  23229532.944 6 124000817.64906        40.750    23229534.044 6  96445092.49806        41.250    23229534.344 6  96445027.49606        41.250
R23  23348038.894 7 124896268.26607        42.000    23348042.166 5  97141555.88305        32.750    23348040.549 5  97141480.88205        33.750
> 2018 11 06 19 06 30.0000000  0 32
C05  40274914.909 5 209722064.89005        34.750    40274910.676 6 162170396.99706        38.750
C10  39974500.781 5 208157748.69205        34.750    39974497.797 6 160960777.39506        40.750
C14  23818734.567 7 124030427.91107        42.750    23818731.129 7  95908185.22807        47.750
C18  40763675.640 5 212267192.89905        34.250
C19  26530057.056 5 138148974.08005        34.750
C24  21940881.889 8 114251976.04008        52.250
C25  25761549.056 6 134147153.52506        36.000
C26  22320295.063 8 116227685.98908        50.250
C29  25855785.862 6 134637871.85806        39.000
E07  25855587.092 7 135872060.67307        43.250    25855591.582 7 101462938.44907        46.500    25855587.543 7 104109779.97307        46.500    25855589.000 8 102786344.71708        49.500
E19  25161401.655 6 132224066.95406        40.750    25161402.974 7  98738764.01607        43.750    25161399.671 7 101314543.91407        44.250    25161400.644 7 100026658.97007        47.000
E20  22438697.299 7 117916155.44907        42.250
