     3.04           OBSERVATION DATA    M (MIXED)           RINEX VERSION / TYPE
GR50 V4.31          BKG/GOWettzell+LMI  20190927 095942 UTC PGM / RUN BY / DATE
gfzrnx-1.11-7513    FILE CONVERSION     20190927 110202 UTC COMMENT
SNR is mapped to RINEX snr flag value [1-9]                 COMMENT
LX:     < 12dBHz -> 1; 12-17dBHz -> 2; 18-23dBHz -> 3       COMMENT
       24-29dBHz -> 4; 30-35dBHz -> 5; 36-41dBHz -> 6       COMMENT
       42-47dBHz -> 7; 48-53dBHz -> 8; >= 54dBHz -> 9       COMMENT
REYK                                                        MARKER NAME
10202M001                                                   MARKER NUMBER
Automatic           BKG/GOWettzell+LMI                      OBSERVER / AGENCY
1830137             LEICA GR50          4.31/7.403          REC # / TYPE / VERS
725281              LEIAR25.R4      LEIT                    ANT # / TYPE
  2587384.4105 -1043033.8325  5716563.9240                  APPROX POSITION XYZ
        0.0635        0.0000        0.0000                  ANTENNA: DELTA H/E/N
DBHZ                                                        SIGNAL STRENGTH UNIT
     0                                                      RCV CLOCK OFFS APPL
G L2S -0.25000                                              SYS / PHASE SHIFT
R L2P  0.25000                                              SYS / PHASE SHIFT
E L8Q -0.25000                                              SYS / PHASE SHIFT
 24 R01  1 R02 -4 R03  5 R04  6 R05  1 R06 -4 R07  5 R08  6 GLONASS SLOT / FRQ #
    R09 -2 R10 -7 R11  0 R12 -1 R13 -2 R14 -7 R15  0 R16 -1 GLONASS SLOT / FRQ #
    R17  4 R18 -3 R19  3 R20  2 R21  4 R22 -3 R23  3 R24  2 GLONASS SLOT / FRQ #
 C1C  -71.940 C1P  -71.940 C2C  -71.940 C2P  -71.940        GLONASS COD/PHS/BIS
    18    18  1929     7                                    LEAP SECONDS
C    8 C2I C7I D2I D7I L2I L7I S2I S7I                      SYS / # / OBS TYPES
E   16 C1C C5Q C7Q C8Q D1C D5Q D7Q D8Q L1C L5Q L7Q L8Q S1C  SYS / # / OBS TYPES
       S5Q S7Q S8Q                                          SYS / # / OBS TYPES
G   16 C1C C2S C2W C5Q D1C D2S D2W D5Q L1C L2S L2W L5Q S1C  SYS / # / OBS TYPES
       S2S S2W S5Q                                          SYS / # / OBS TYPES
I    4 C5A D5A L5A S5A                                      SYS / # / OBS TYPES
R   12 C1C C2C C2P D1C D2C D2P L1C L2C L2P S1C S2C S2P      SYS / # / OBS TYPES
S    4 C1C D1C L1C S1C                                      SYS / # / OBS TYPES
    49                                                      # OF SATELLITES
   C06   120   120   120   120   120   120   120   120      PRN / # OF OBS
   C09   120   120   120   120   120   120   120   120      PRN / # OF OBS
   C11   120   120   120   120   120   120   120   120      PRN / # OF OBS
   C16   120   120   120   120   120   120   120   120      PRN / # OF OBS
   C21   120         120         120         120            PRN / # OF OBS
   C22   117         117         116         117            PRN / # OF OBS
   C23    68          68          68          68            PRN / # OF OBS
   C27    10          10          10          10            PRN / # OF OBS
   C28   120         120         120         120            PRN / # OF OBS
   E01   120   120   120   120   120   120   120   120   120PRN / # OF OBS
         120   120   120   120   120   120   120            PRN / # OF OBS
   E03   120   120   120   120   120   120   120   120   120PRN / # OF OBS
         120   120   120   120   120   120   120            PRN / # OF OBS
   E05   120   120   120   120   120   120   120   120   120PRN / # OF OBS
         120   120   120   120   120   120   120            PRN / # OF OBS
   E07     7     7     7     7     7     7     7     7     7PRN / # OF OBS
           7     7     7     7     7     7     7            PRN / # OF OBS
   E08   120   120   120   120   120   120   120   120   120PRN / # OF OBS
         120   120   120   120   120   120   120            PRN / # OF OBS
   E13   120   120   120   120   120   120   120   120   120PRN / # OF OBS
         120   120   120   120   120   120   120            PRN / # OF OBS
   E15   120   120   120   120   120   120   120   120   120PRN / # OF OBS
         120   120   120   120   120   120   120            PRN / # OF OBS
   E18   120   120   120   120   120   120   120   120   120PRN / # OF OBS
         120   120   120   120   120   120   120            PRN / # OF OBS
   E21   120   120   120   120   120   120   120   120   120PRN / # OF OBS
         120   120   120   120   120   120   120            PRN / # OF OBS
   E26   120   120   120   120   120   120   120   120   120PRN / # OF OBS
         120   120   120   120   120   120   120            PRN / # OF OBS
   E31   120   120   120   120   120   120   120   120   120PRN / # OF OBS
         120   120   120   120   120   120   120            PRN / # OF OBS
   E33     2     3     3     4     2     3     3     4     2PRN / # OF OBS
           3     3     4     2     3     3     4            PRN / # OF OBS
   G01   120   120   120   120   120   120   120   120   120PRN / # OF OBS
         120   120   120   120   120   120   120            PRN / # OF OBS
   G03   120   120   120   120   120   120   120   120   120PRN / # OF OBS
         120   120   120   120   120   120   120            PRN / # OF OBS
   G08   120   120   120   120   120   120   120   120   120PRN / # OF OBS
         120   120   120   120   120   120   120            PRN / # OF OBS
   G10   117   117   117   117   117   117   117   117   117PRN / # OF OBS
         117   117   117   117   117   117   117            PRN / # OF OBS
   G11   120         120         120         120         120PRN / # OF OBS
               120         120         120                  PRN / # OF OBS
   G14   120         120         120         120         120PRN / # OF OBS
               120         120         120                  PRN / # OF OBS
   G17   120   120   120         120   120   120         120PRN / # OF OBS
         120   120         120   120   120                  PRN / # OF OBS
   G18   120         120         120         120         120PRN / # OF OBS
               120         120         120                  PRN / # OF OBS
   G19    92          92          92          92          92PRN / # OF OBS
                92          92          92                  PRN / # OF OBS
   G22   120         120         120         120         120PRN / # OF OBS
               120         120         120                  PRN / # OF OBS
   G24   120   120   120   120   120   120   120   120   120PRN / # OF OBS
         120   120   120   120   120   120   120            PRN / # OF OBS
   G27    38    38    37    37    38    38    37    37    38PRN / # OF OBS
          38    37    37    38    38    37    37            PRN / # OF OBS
   G28   120         120         120         120         120PRN / # OF OBS
               120         120         120                  PRN / # OF OBS
   G30     8     8     8     8     8     8     8     8     8PRN / # OF OBS
           8     8     8     8     8     8     8            PRN / # OF OBS
   G32   120   120   120   120   120   120   120   120   120PRN / # OF OBS
         120   120   120   120   120   120   120            PRN / # OF OBS
   I06   119   119    72   119                              PRN / # OF OBS
   R03    91    90    91    91    90    91    91    89    90PRN / # OF OBS
          91    90    91                                    PRN / # OF OBS
   R05   120   120   120   120   120   120   120   120   120PRN / # OF OBS
         120   120   120                                    PRN / # OF OBS
   R06    60                60                60            PRN / # OF OBS
          60                                                PRN / # OF OBS
   R11   120   120   120   120   120   120   120   120   120PRN / # OF OBS
         120   120   120                                    PRN / # OF OBS
   R12   120   120   120   120   120   120   120   120   120PRN / # OF OBS
         120   120   120                                    PRN / # OF OBS
   R13    77    70    72    77    70    72    77    68    71PRN / # OF OBS
          77    70    72                                    PRN / # OF OBS
   R19    94    94    94    94    94    94    92    92    92PRN / # OF OBS
          94    94    94                                    PRN / # OF OBS
   R20   120   120   120   120   120   120   120   120   120PRN / # OF OBS
         120   120   120                                    PRN / # OF OBS
   R21   120   120   120   120   120   120   120   120   120PRN / # OF OBS
         120   120   120                                    PRN / # OF OBS
   R22    50    50    50    50    50    50    50    50    50PRN / # OF OBS
          50    50    50                                    PRN / # OF OBS
   S23   120   120   120   120                              PRN / # OF OBS
   S36   120   120   120   120                              PRN / # OF OBS
    30.000                                                  INTERVAL
  2019     9    27    10     0    0.0000000     GPS         TIME OF FIRST OBS
  2019     9    27    10    59   30.0000000     GPS         TIME OF LAST OBS
                                                            END OF HEADER
> 2019 09 27 10 00 00.0000000  0 42
C06  39266633.891    39266628.804        -109.319         -84.593   204471670.07007 158110458.91307        44.750          43.600
C09  39039513.405    39039511.629         852.858         659.387   203289010.45107 157195962.32807        44.800          44.850
C11  21916950.651    21916948.076       -1155.263        -893.272   114127333.35208  88250485.94108        49.650          52.250
C16  39133473.461    39133473.711          88.736          68.542   203778272.34407 157574295.84807        46.750          43.950
C21  22976455.210                         478.927                   119644455.50308                        51.700
C22  25098761.472                       -2464.142                   130695844.26708                        49.750
C23  26189351.542                       -3140.748                   136374811.81907                        45.250
C28  24429393.631                        2981.715                   127210260.39207                        47.850
E01  25400852.617    25400854.030    25400852.714    25400852.817        -141.706        -105.814        -108.563        -107.187   133482377.52148  99678409.80308 102278703.69108 100978555.17908        51.450          50.700          50.600          53.900
E03  25747702.956    25747705.451    25747704.216    25747704.949        1301.991         972.296         997.591         984.992   135305115.88448 101039555.66107 103675359.08008 102357454.80208        51.150          47.850          48.950          51.850
E05  26834238.308    26834240.915    26834239.343    26834239.799       -1469.900       -1097.621       -1126.290       -1111.953   141014882.34948 105303337.38407 108050374.27407 106676855.26008        49.200          47.250          47.150          50.650
E08  25618674.144    25618676.162    25618674.553    25618675.174        3158.453        2358.588        2420.006        2389.337   134627051.39047 100533202.59207 103155801.15407 101844500.30907        44.900          42.950          43.100          46.450
E13  23229087.655    23229088.871    23229087.484    23229087.872         390.865         291.878         299.545         295.726   122069677.50148  91155953.13408  93533933.65808  92344940.82709        53.950          53.900          53.900          57.300
E15  24785348.570    24785351.405    24785350.141    24785350.433       -2265.801       -1692.034       -1736.168       -1714.087   130247896.19248  97263056.81908  99800349.22308  98531702.45309        53.150          50.750          51.650          54.550
E18  17806162.548    17806163.605    17806162.267    17806162.523       -2028.967       -1515.110       -1554.657       -1534.867    93572015.31049  69875207.78809  71698032.99809  70786617.82309        56.250          56.600          56.750          60.000
E21  26298768.784    26298771.215    26298769.890    26298770.199       -2760.938       -2061.730       -2115.577       -2088.602   138200952.22648 103202013.36708 105894233.79908 104548122.01008        50.950          48.250          49.100          52.000
E26  24884980.418    24884983.791    24884982.402    24884982.690        2681.401        2002.342        2054.565        2028.477   130771451.11648  97654019.95308 100201514.78908  98927766.30308        49.250          48.400          48.700          51.900
E31  27552869.995    27552873.142    27552871.914    27552872.106        2425.125        1811.075        1858.278        1834.749   144791308.98947 108123397.19507 110944001.07207 109533696.56207        46.550          43.100          43.700          46.750
G01  20526252.493    20526254.002    20526253.893    20526252.256        1551.516        1208.974        1208.974        1158.553   107866192.40909  84051594.91508  84051598.90908  80549450.28609        54.000          51.700          49.800          56.100
G03  24790445.542    24790447.475    24790446.794    24790447.725        4020.952        3133.212        3133.213        3002.608   130274671.61907 101512742.47706 101512739.47906  97283044.73506        44.050          41.250          39.050          41.900
G08  21909591.916    21909593.824    21909593.064    21909591.830       -2803.168       -2184.289       -2184.289       -2093.276   115135679.56508  89716123.69308  89716120.68708  85977932.99008        53.550          49.950          48.050          53.350
G10  23271983.349    23271984.780    23271984.705    23271982.496       -2751.001       -2143.639       -2143.638       -2054.212   122295106.49907  95294898.17707  95294881.17707  91324275.02108        47.400          47.950          44.600          50.250
G11  20182171.481                    20182168.741                         708.563                         552.127                   106058033.73608                  82642616.51708                        51.450                          48.950
G14  25036551.579                    25036551.028                        3065.456                        2388.673                   131567973.76307                 102520498.33306                        42.200                          36.650
G17  24564622.781    24564621.639    24564621.336                        3405.206        2653.407        2653.407                   129087961.65108 100588017.62707 100588010.62706                        51.250          43.000          40.250
G18  19912259.811                    19912258.619                        -241.988                        -188.562                   104639671.60408                  81537378.53708                        52.900                          48.150
G22  23192405.812                    23192401.808                        3240.436                        2525.016                   121876929.24508                  94969025.58007                        50.750                          42.300
G24  24551577.029    24551579.644    24551579.087    24551579.230        1719.541        1339.901        1339.903        1284.183   129019408.18507 100534624.98607 100534603.97806  96345675.25807        45.800          42.800          40.050          44.700
G27  25046717.997    25046720.410    25046719.848    25046719.822       -3866.910       -3013.177       -3013.176       -2887.518   131621372.50707 102562109.35506 102562102.35706  98288683.56507        46.850          40.700          37.950          45.300
G28  21843695.301                    21843692.756                         673.338                         524.678                   114789398.05308                  89446274.87807                        50.800                          44.500
G30  25566120.646    25566122.361    25566121.738    25566121.623       -3334.749       -2598.507       -2598.506       -2490.124   134350865.65107 104688986.81706 104688963.82006 100326932.83307        43.400          40.050          38.750          42.250
G32  23723405.189    23723406.866    23723406.410    23723404.568        2223.195        1732.358        1732.360        1660.106   124667345.67908  97143397.44106  97143397.44406  93095755.95907        50.050          41.150          39.500          46.250
I06  41072385.202          35.878                          29.550
R03  22625707.766    22625706.880    22625706.658       -3452.189       -2685.039       -2685.037   121117202.61608  94202264.52807  94202268.53807        48.600          42.800          42.650
R05  21902991.578    21902993.289    21902993.317        3944.530        3067.968        3067.969   117084065.20208  91065396.41007  91065396.41107        50.100          46.550          45.850
R11  21044789.411    21044790.713    21044790.725       -1403.434       -1091.560       -1091.561   112456983.89508  87466547.72208  87466546.71407        52.850          48.200          47.600
R12  22021208.885    22021210.632    22021210.646        2418.574        1881.111        1881.113   117633347.27107  91492632.09207  91492639.08607        46.800          44.400          43.800
R19  22472965.770    22472966.148    22472965.796       -3889.760       -3025.368       -3025.368   120215206.53106  93500722.40706  93500718.40606        38.050          41.500          40.650
R20  19319322.103    19319324.785    19319323.712        -579.318        -450.581        -450.581   103309106.64607  80351531.89308  80351529.89208        47.200          48.600          48.850
R21  21246758.459    21246758.572    21246758.616        3386.079        2633.618        2633.618   113695696.68208  88429984.43207  88429990.43107        52.100          47.950          47.400
S23  40948880.224           -.462   215187812.75807        44.200
S36  40095488.629           3.836   210703203.98006        41.300
> 2019 09 27 10 00 30.0000000  0 42
C06  39267280.276    39267275.172        -114.451         -88.608   204475035.84707 158113061.55707        45.250          43.500
C09  39034616.647    39034614.719         847.674         655.440   203263511.28607 157176244.76507        44.950          44.850
C11  21923643.994    21923641.546       -1168.093        -903.209   114162188.37908  88277438.04008        49.750          52.400
C16  39132980.945    39132981.292          82.736          64.003   203775707.73107 157572312.73507        46.750          44.050
C21  22973748.300                         461.231                   119630359.73608                        51.850
C22  25112992.244                       -2475.697                   130769947.18608                        50.100
C23  26207461.927                       -3145.939                   136469118.23507                        45.900
C28  24412232.637                        2976.228                   127120898.19808                        48.550
E01  25401707.339    25401708.753    25401707.441    25401707.525        -157.244        -117.488        -120.528        -119.013   133486869.04948  99681763.86808 102282145.25308 100981952.99108        51.000          50.300          50.500          53.400
E03  25740311.208    25740313.640    25740312.252    25740312.785        1288.136         961.911         987.019         974.476   135266270.25548 101010547.58408 103645594.26308 102328068.35608        52.200          48.050          49.450          51.750
E05  26842667.824    26842670.424    26842668.820    26842669.300       -1482.961       -1107.341       -1136.259       -1121.782   141059179.65148 105336416.52107 108084316.34507 106710365.86108        49.100          46.600          47.000          49.900
E08  25600654.389    25600656.545    25600654.889    25600655.503        3155.029        2356.013        2417.417        2386.717   134532357.62947 100462489.77807 103083243.63007 101772865.13707        45.950          43.500          43.250          46.400
E13  23226888.058    23226889.200    23226887.820    23226888.210         380.198         283.887         291.298         287.601   122058118.18648  91147321.17508  93525076.52308  92336196.27909        53.650          53.550          53.900          56.800
E15  24798303.594    24798306.421    24798305.190    24798305.447       -2272.346       -1696.898       -1741.123       -1719.017   130315975.14448  97313894.97008  99852513.58308  98583203.71008        52.400          50.300          51.600          53.950
E18  17817887.567    17817888.615    17817887.285    17817887.526       -2078.298       -1551.992       -1592.470       -1572.251    93633630.51649  69921219.13809  71745244.64509  70833229.32409        55.900          56.300          56.800          59.600
E21  26314555.280    26314557.664    26314556.401    26314556.765       -2769.175       -2067.922       -2121.927       -2094.916   138283910.97848 103263963.05207 105957799.56708 104610879.73908        50.100          47.800          49.100          51.500
E26  24869686.381    24869689.768    24869688.603    24869688.818        2677.043        1999.029        2051.197        2025.092   130691081.14248  97594003.42908 100139932.62408  98866966.95908        49.400          48.000          48.800          51.500
E31  27539053.151    27539056.217    27539054.847    27539055.174        2415.709        1803.840        1850.878        1827.524   144718700.95847 108069176.95307 110888366.36507 109478769.08207        45.900          42.750          43.850          46.400
G01  20517445.960    20517447.523    20517447.403    20517445.747        1534.013        1195.330        1195.330        1145.588   107819913.99308  84015533.79308  84015537.78708  80514891.72609        53.600          52.250          50.750          55.850
G03  24767497.746    24767499.929    24767499.332    24767499.276        4018.588        3131.365        3131.365        3001.166   130154080.39607 101418775.35107 101418772.34907  97192992.83807        44.800          44.300          42.700          42.200
G08  21925628.565    21925630.369    21925629.673    21925628.275       -2814.586       -2193.190       -2193.190       -2101.780   115219951.70608  89781790.24908  89781787.24108  86040863.45808        53.800          50.750          48.700          52.750
G10  23287725.186    23287726.578    23287726.428    23287724.463       -2763.696       -2153.539       -2153.540       -2063.726   122377830.39807  95359358.32508  95359341.31607  91386049.31408        44.950          48.600          44.850          49.900
G11  20178181.921                    20178179.205                         689.440                         537.221                   106037068.54908                  82626279.98708                        51.150                          49.800
G14  25019070.508                    25019069.908                        3059.020                        2383.647                   131476109.97507                 102448916.18206                        44.100                          36.050
G17  24545193.049    24545191.741    24545191.364                        3402.272        2651.117        2651.117                   128985856.73008 100508455.32507 100508448.32706                        49.950          42.200          39.600
G18  19913700.163                    19913698.954                        -262.163                        -204.288                   104647240.63408                  81543276.45808                        52.700                          48.800
G22  23173933.371                    23173929.400                        3231.428                        2517.991                   121779856.67208                  94893384.61707                        50.600                          43.800
G24  24541810.291    24541812.695    24541812.228    24541812.478        1702.754        1326.816        1326.814        1271.275   128968083.31607 100494631.57507 100494610.56106  96307348.29607        45.400          43.350          40.950          44.300
G27  25068799.203    25068801.377    25068800.768    25068800.903       -3868.426       -3014.368       -3014.367       -2888.749   131737409.15707 102652527.42806 102652520.42206  98375334.22207        45.600          41.600          39.300          44.600
G28  21839903.029                    21839900.432                         655.719                         510.944                   114769469.22608                  89430745.90307                        50.900                          44.300
G30  25585167.854    25585169.419    25585168.847    25585168.994       -3337.914       -2600.976       -2600.977       -2492.573   134450958.84607 104766981.55606 104766958.54506 100401677.78407        46.600          38.050          36.550          44.100
G32  23710756.531    23710757.897    23710757.157    23710756.853        2208.467        1720.877        1720.878        1649.200   124600878.32208  97091604.68706  97091604.68006  93046121.31507        50.150          41.900          39.800          46.000
I06  41072113.957          35.555                          28.850
R03  22645102.172    22645101.227    22645101.023       -3468.687       -2697.874       -2697.874   121221022.33108  94283013.14006  94283017.15006        48.750          41.550          41.650
R05  21880894.484    21880896.154    21880896.197        3930.512        3057.062        3057.062   116965943.96608  90973524.34907  90973524.35007        49.100          45.550          45.300
R11  21052744.496    21052745.651    21052745.648       -1430.126       -1112.326       -1112.325   112499493.19108  87499610.47907  87499609.47907        52.950          47.400          46.700
R12  22007689.088    22007692.633    22007692.646        2395.770        1863.371        1863.371   117561136.95907  91436468.48807  91436475.47707        45.400          44.350          43.300
R19  22494801.260    22494801.571    22494801.243       -3896.275       -3030.441       -3030.441   120332011.37806  93591570.56406  93591566.55606        38.750          40.400          40.000
R20  19322629.658    19322632.291    19322631.217        -599.414        -466.216        -466.216   103326793.61807  80365288.40208  80365286.39908        46.850          48.000          48.050
R21  21227805.463    21227805.664    21227805.670        3375.754        2625.581        2625.582   113594275.90508  88351101.58007  88351107.58007        51.050          47.200          46.750
S23  40948882.983           -.119   215187829.47207        43.900
S36  40095467.559           4.176   210703094.69306        40.800
> 2019 09 27 10 01 00.0000000  0 42
C06  39267958.374    39267953.237        -120.323         -93.016   204478566.51607 158115791.68407        45.600          43.500
C09  39029751.443    39029749.229         841.817         650.975   203238175.06507 157156653.19907        46.100          44.950
C11  21930413.013    21930410.601       -1181.680        -913.720   114197437.02908  88304694.54308        49.850          51.900
C16  39132523.054    39132523.574          76.457          59.058   203773323.58507 157570469.15007        47.050          43.800
C21  22971144.330                         442.902                   119616800.28508                        52.100
C22  25127291.279                       -2487.957                   130844405.60608                        50.850
C23  26225603.845                       -3151.678                   136563587.81807                        46.600
C28  24395104.313                        2970.121                   127031706.28108                        48.900
E01  25402652.254    25402653.752    25402652.348    25402652.515        -173.513        -129.569        -132.958        -131.229   133491834.96148  99685472.17008 102285950.29708 100985709.66208        51.200          50.800          50.150          52.950
E03  25732999.032    25733001.328    25733000.063    25733000.265        1273.899         951.318         976.095         963.722   135227842.84148 100981851.79208 103616149.89308 102298998.27408        51.400          48.450          49.250          51.350
E05  26851172.750    26851175.267    26851173.710    26851174.223       -1496.399       -1117.526       -1146.665       -1132.059   141103873.42648 105369791.74707 108118562.22607 106744176.41408        49.300          47.050          46.400          49.300
E08  25582655.321    25582657.432    25582655.686    25582656.267        3150.910        2353.110        2414.397        2383.827   134437771.94347 100391857.64607 103010768.91207 101701311.70707        46.400          43.600          42.900          45.850
E13  23224750.675    23224751.798    23224750.421    23224750.813         368.881         275.439         282.668         279.052   122046886.04848  91138933.53608  93516470.07308  92327699.23609        53.700          53.950          53.650          56.250
E15  24811296.604    24811299.617    24811298.440    24811298.626       -2279.393       -1702.152       -1746.570       -1724.390   130384254.78148  97364882.97508  99904831.71708  98634856.78008        52.000          50.600          51.150          53.350
E18  17829895.011    17829896.032    17829894.725    17829894.944       -2128.042       -1589.109       -1630.605       -1609.849    93696729.83949  69968338.74909  71793593.46909  70880963.54009        55.900          56.700          56.450          59.050
E21  26330390.059    26330392.436    26330391.316    26330391.547       -2778.054       -2074.551       -2128.590       -2101.553   138367123.34348 103326102.12607 106021559.64608 104673829.31708        50.250          47.700          48.650          50.750
E26  24854419.392    24854422.853    24854421.514    24854421.875        2671.830        1995.246        2047.212        2021.192   130610852.84148  97534092.69708 100078459.00308  98806274.78408        49.250          48.750          48.100          50.950
E31  27525291.700    27525294.716    27525293.709    27525293.864        2405.651        1796.279        1843.186        1819.807   144646384.81147 108015174.68007 110832955.34707 109424062.43907        44.900          43.100          44.000          46.150
G01  20508739.865    20508741.390    20508741.265    20508739.619        1516.171        1181.433        1181.433        1132.207   107774162.96409  83979883.65508  83979887.65208  80480727.00109        54.000          51.250          49.450          56.250
G03  24744562.629    24744564.990    24744564.423    24744564.071        4016.441        3129.698        3129.697        2999.177   130033555.43707 101324859.87907 101324856.87306  97102990.46907        46.150          42.950          40.700          45.300
G08  21941730.907    21941732.570    21941731.846    21941730.398       -2826.285       -2202.299       -2202.299       -2110.618   115304568.99808  89847725.79308  89847722.78208  86104051.67308        53.550          49.600          48.100          53.050
G10  23303540.757    23303542.003    23303542.025    23303539.771       -2776.779       -2163.726       -2163.726       -2073.555   122460940.48307  95424119.43307  95424102.43507  91448112.03908        44.000          46.950          44.500          50.300
G11  20174303.110                    20174300.423                         669.705                         521.850                   106016685.44508                  82610397.06208                        51.200                          48.650
G14  25001625.810                    25001624.933                        3052.403                        2378.497                   131384437.29107                 102377482.99506                        43.850                          36.400
G17  24525781.500    24525780.061    24525779.646                        3398.638        2648.290        2648.291                   128883848.22408 100428968.20206 100428961.19906                        49.150          39.400          37.800
G18  19915256.883                    19915255.673                        -282.977                        -220.501                   104655421.20808                  81549650.94407                        52.950                          47.600
G22  23155514.630                    23155510.795                        3221.590                        2510.331                   121683066.13108                  94817963.46107                        50.300                          42.250
G24  24532143.251    24532145.649    24532145.244    24532145.431        1684.616        1312.689        1312.689        1257.929   128917282.47207 100455046.52406 100455025.52106  96269412.60207        45.100          41.900          39.850          44.850
G27  25090890.622    25090892.837    25090892.207    25090892.255       -3870.941       -3016.320       -3016.321       -2890.345   131853499.64307 102742987.49206 102742980.48506  98462025.06407        45.700          41.150          39.750          44.200
G28  21836212.478                    21836209.839                         637.495                         496.751                   114750074.89208                  89415633.45307                        51.400                          43.850
G30  25604233.985    25604235.625    25604235.047    25604235.274       -3341.476       -2603.744       -2603.743       -2495.287   134551152.12907 104845054.15706 104845031.15105 100476497.43506        46.600          36.400          34.150          39.800
G32  23698193.281    23698194.724    23698194.043    23698193.319        2193.076        1708.893        1708.892        1637.772   124534856.93808  97040159.48107  97040159.47606  92996819.65607        51.000          43.050          40.700          44.850
I06  41071841.768          35.738   161174729.57105        30.250
R03  22664589.230    22664588.210    22664588.100       -3485.494       -2710.940       -2710.940   121325337.92908  94364147.47007  94364151.47307        48.750          42.200          42.050
R05  21858877.381    21858879.185    21858879.256        3915.888        3045.693        3045.693   116848250.40908  90881984.97607  90881984.97307        50.000          45.700          45.600
R11  21060849.933    21060851.246    21060851.162       -1457.178       -1133.358       -1133.359   112542806.64708  87533298.74007  87533297.73407        52.300          47.650          47.250
R12  21994300.077    21994304.858    21994304.900        2372.323        1845.140        1845.138   117489621.52907  91380845.35807  91380852.35707        47.100          44.900          43.800
R19  22516673.377    22516673.686    22516673.421       -3903.263       -3035.871       -3035.871   120449012.10706  93682571.08706  93682567.08906        39.300          40.350          39.750
R20  19326050.891    19326053.598    19326052.519        -619.930        -482.167        -482.167   103345088.72207  80379517.95008  80379515.94808        46.800          48.200          48.350
R21  21208911.797    21208912.152    21208912.193        3364.667        2616.966        2616.966   113493172.99708  88272466.02207  88272472.01207        51.350          47.300          46.800
S23  40948886.083           -.537   215187845.66607        44.000
S36  40095446.469           3.312   210702984.88406        41.000
> 2019 09 27 10 01 30.0000000  0 41
C06  39268667.480    39268662.369        -125.722         -97.543   204482258.92307 158118646.90107        45.550          43.400
C09  39024917.098    39024914.562         836.308         646.618   203212998.83507 157137185.33107        46.600          45.450
C11  21937256.966    21937254.568       -1194.703        -923.853   114233075.63508  88332252.55708        49.800          52.250
C16  39132099.248    39132099.844          70.469          54.402   203771116.60407 157568762.57907        47.200          44.050
C21  22968642.821                         425.133                   119603774.33408                        52.000
C22  25141657.605                       -2499.637                   130919214.27308                        50.700
C23  26243776.125                       -3157.128                   136658214.88607                        45.550
C28  24378008.482                        2964.473                   126942682.84608                        49.600
E01  25403686.864    25403688.407    25403686.908    25403687.157        -189.296        -141.364        -145.075        -143.220   133497272.00248  99689532.29208 102290116.33608 100989822.74708        51.600          50.800          50.400          52.800
E03  25725765.382    25725767.904    25725766.843    25725766.989        1259.999         940.804         965.310         953.072   135189831.43348 100953466.68008 103587024.30008 102270242.92008        50.250          48.350          49.400          51.100
E05  26859752.268    26859754.870    26859753.361    26859753.803       -1509.604       -1127.318       -1156.684       -1142.002   141148959.25548 105403459.70807 108153108.48407 106778283.52908        49.250          47.100          47.250          49.350
E08  25564676.461    25564678.749    25564677.150    25564677.521        3147.272        2350.252        2411.500        2380.840   134343292.96647 100321305.24107 102938376.01407 101629839.05807        46.350          43.250          43.500          45.550
E13  23222674.938    23222676.079    23222674.690    23222675.084         358.061         267.292         274.247         270.788   122035978.00048  91130787.91908  93508111.96308  92319447.37309        53.950          53.900          53.850          56.100
E15  24824327.136    24824330.225    24824329.030    24824329.231       -2286.106       -1707.172       -1751.705       -1729.453   130452731.05748  97416017.83208  99957300.52708  98686658.61208        52.150          50.600          51.300          53.150
E18  17842183.264    17842184.262    17842182.979    17842183.174       -2177.190       -1625.895       -1668.311       -1647.085    93761304.81549  70016560.31109  71843072.98309  70929814.07809        56.100          56.650          56.750          58.850
E21  26346272.160    26346274.591    26346273.431    26346273.632       -2786.291       -2080.764       -2135.143       -2107.954   138450584.32848 103388426.84007 106085510.24308 104736966.97308        50.350          47.950          48.900          50.600
E26  24839178.918    24839182.422    24839181.014    24839181.373        2667.133        1991.554        2043.531        2017.535   130530763.78348  97474285.95408 100017092.07308  98745687.94408        50.000          48.650          48.500          50.700
E31  27511585.340    27511588.633    27511587.549    27511587.891        2395.716        1789.057        1835.669        1812.345   144574359.02347 107961389.22807 110777766.79907 109369575.44707        45.050          43.550          44.100          46.050
G01  20500133.770    20500135.182    20500135.067    20500133.433        1498.626        1167.760        1167.759        1119.009   107728937.11709  83944642.73908  83944646.73308  80446954.45309        54.300          51.900          50.150          56.200
G03  24721640.168    24721642.324    24721641.701    24721641.584        4013.946        3127.749        3127.750        2997.348   129913095.98807 101230995.41007 101230992.40806  97013037.02907        47.100          43.100          40.200          46.600
G08  21957897.768    21957899.411    21957898.714    21957897.226       -2837.715       -2211.206       -2211.208       -2119.153   115389526.11408  89913926.13308  89913923.12208  86167493.65508        53.400          50.050          48.650          53.000
G10  23319428.725    23319429.775    23319429.767    23319427.590       -2789.456       -2173.604       -2173.604       -2083.192   122544431.16507  95489177.09708  95489160.09807  91510458.95708        45.700          48.050          44.750          50.150
G11  20170534.545                    20170531.967                         650.291                         506.718                   105996881.94908                  82594965.77308                        51.350                          49.100
G14  24984217.212                    24984216.592                        3045.848                        2373.389                   131292955.41606                 102306198.49806                        41.650                          37.850
G17  24506388.027    24506386.287    24506385.877                        3395.305        2645.690        2645.689                   128781934.35208 100349554.76006 100349547.75906                        50.950          40.700          38.300
G18  19916929.265                    19916928.058                        -303.234                        -236.288                   104664209.76508                  81556499.17308                        53.200                          48.000
G22  23137149.385                    23137145.681                        3212.183                        2502.999                   121586556.40908                  94742761.11507                        50.900                          43.650
G24  24522575.668    24522578.092    24522577.585    24522577.824        1667.023        1298.979        1298.979        1244.736   128867004.63207 100415869.01207 100415848.00406  96231867.48707        45.800          42.000          39.950          45.000
G27  25112991.274    25112993.530    25112992.955    25112992.873       -3872.421       -3017.473       -3017.475       -2891.646   131969639.12607 102833485.68006 102833478.67906  98548752.51007        45.750          41.250          39.500          44.600
G28  21832623.222                    21832620.550                         619.530                         482.749                   114731212.84508                  89400935.75607                        51.350                          44.900
G30  25623318.074    25623319.606    25623319.049    25623319.185       -3344.487       -2606.106       -2606.106       -2497.717   134651439.29106 104923200.10006 104923177.10106 100551387.21207        41.250          40.950          37.800          44.050
G32  23685714.688    23685716.456    23685715.977    23685713.657        2178.261        1697.346        1697.345        1626.602   124469280.76708  96989061.21707  96989061.21506  92947850.42107        50.300          43.950          41.050          44.850
R03  22684167.858    22684166.739    22684166.695       -3501.752       -2723.587       -2723.587   121430142.69308  94445662.25106  94445666.26106        48.750          41.000          41.350
R05  21836940.686    21836942.448    21836942.534        3901.434        3034.447        3034.447   116730986.00108  90790779.36107  90790779.35607        50.550          45.350          44.800
R11  21069104.997    21069106.286    21069106.273       -1483.918       -1154.162       -1154.161   112586919.00008  87567608.32507  87567607.32207        52.700          46.900          46.300
R12  21981042.671    21981047.080    21981047.074        2348.860        1826.890        1826.890   117418800.81608  91325762.60407  91325769.59807        48.900          42.950          43.050
R19  22538581.172    22538581.282    22538581.077       -3909.745       -3040.918       -3040.917   120566203.38106  93773719.81806  93773715.81806        39.000          39.200          38.600
R20  19329585.219    19329587.952    19329586.817        -640.144        -497.892        -497.891   103363988.22907  80394217.56507  80394215.56107        47.150          47.350          47.250
R21  21190077.395    21190077.873    21190077.872        3354.054        2608.709        2608.708   113392386.92508  88194076.86307  88194082.85407        51.200          46.600          45.750
S23  40948889.286           -.913   215187860.89207        44.650
S36  40095425.385           3.540   210702874.93806        41.850
> 2019 09 27 10 02 00.0000000  0 42
C06  39269408.498    39269403.359        -131.135        -101.376   204486117.56607 158121630.63407        45.300          44.100
C09  39020114.268    39020111.532         831.383         642.704   203187987.34207 157117844.87807        46.550          46.000
C11  21944176.665    21944174.261       -1207.536        -933.672   114269108.40208  88360115.38008        49.650          52.850
C16  39131710.467    39131710.864          64.599          50.040   203769091.46407 157567196.61507        47.300          44.600
C21  22966244.760                         407.595                   119591286.86308                        51.950
C22  25156091.604                       -2511.046                   130994375.91408                        50.400
C23  26261978.759                       -3162.019                   136753001.82707                        45.450
C28  24360946.038                        2958.859                   126853833.94908                        49.700
E01  25404812.049    25404813.665    25404812.155    25404812.364        -204.767        -152.986        -156.930        -154.914   133503184.93848  99693947.79808 102294647.02808 100994295.84308        51.100          51.450          51.000          53.150
E03  25718611.947    25718614.717    25718613.566    25718613.959        1246.048         930.571         954.750         942.656   135152241.78748 100925396.52208 103558221.88308 102241806.63508        50.800          49.100          49.850          51.600
E05  26868407.023    26868409.688    26868408.340    26868408.627       -1522.281       -1136.911       -1166.540       -1151.722   141194440.73648 105437423.14707 108187957.92307 106812689.96608        48.950          47.250          47.550          49.400
E08  25546719.320    25546721.606    25546719.953    25546720.390        3143.843        2347.629        2408.872        2378.319   134248927.42847 100250837.51007 102866069.97507 101558452.16707        45.000          44.350          43.650          46.000
E13  23220661.795    23220662.967    23220661.570    23220661.964         347.399         259.383         266.114         262.758   122025398.97148  91122887.98609  93500005.95009  92311444.39709        53.700          54.600          54.500          56.550
E15  24837395.812    24837399.025    24837397.816    24837398.034       -2292.404       -1711.881       -1756.569       -1734.210   130521407.95148  97467302.49208 100009923.05408  98738612.20308        51.850          51.100          51.850          53.400
E18  17854752.249    17854753.199    17854751.930    17854752.107       -2225.962       -1662.258       -1705.657       -1683.950    93827354.91149  70065883.42209  71893682.78909  70979780.53509        55.900          57.250          57.400          59.300
E21  26362202.125    26362204.550    26362203.383    26362203.690       -2794.386       -2086.746       -2141.176       -2113.983   138534296.94048 103450939.46308 106149653.62408 104800294.97708        49.800          48.250          49.300          50.750
E26  24823966.063    24823969.584    24823968.030    24823968.493        2662.537        1988.282        2040.129        2014.226   130450819.57848  97414587.35308  99955836.11708  98685210.66608        49.550          49.250          48.700          50.950
E31  27497935.603    27497939.162    27497937.975    27497938.355        2386.144        1781.907        1828.404        1805.141   144502630.22547 107907825.56507 110722805.81207 109315313.12007        44.950          44.600          44.650          46.600
G01  20491628.666    20491630.026    20491629.921    20491628.261        1481.130        1154.127        1154.128        1106.084   107684242.19708  83909815.53408  83909819.53008  80413578.38109        53.950          51.450          50.150          56.800
G03  24698731.336    24698733.422    24698732.805    24698733.065        4011.896        3126.156        3126.156        2995.835   129792709.23907 101137187.61206 101137184.60906  96923137.87308        45.400          40.850          39.300          48.400
G08  21974129.795    21974131.600    21974130.880    21974129.384       -2848.824       -2219.863       -2219.863       -2127.401   115474826.78108  89980394.15608  89980391.14808  86231192.17008        52.600          49.500          48.400          53.450
G10  23335389.323    23335390.290    23335390.235    23335388.165       -2802.148       -2183.490       -2183.490       -2092.408   122628304.81407  95554533.15407  95554516.13907  91573091.82408        45.950          47.550          44.500          50.650
G11  20166877.326                    20166874.800                         631.025                         491.708                   105977663.43708                  82579990.30108                        50.750                          49.350
G14  24966846.412                    24966845.745                        3039.411                        2368.374                   131201671.72807                 102235068.41906                        42.300                          37.350
G17  24487013.799    24487012.098    24487011.778                        3392.268        2643.326        2643.327                   128680121.44208 100270220.01507 100270213.01906                        50.500          42.550          40.750
G18  19918718.168                    19918716.985                        -323.355                        -251.964                   104673610.67308                  81563824.54808                        52.650                          48.250
G22  23118838.938                    23118835.534                        3202.760                        2495.657                   121490334.70908                  94667783.20407                        50.550                          44.050
G24  24513108.994    24513111.199    24513110.535    24513110.884        1649.669        1285.459        1285.458        1231.818   128817256.27807 100377104.07406 100377083.06406  96194717.74707        46.150          41.750          40.400          45.650
G27  25135101.870    25135104.120    25135103.493    25135103.708       -3873.794       -3018.545       -3018.545       -2892.795   132085830.85407 102924024.58906 102924017.59806  98635518.92807        44.750          40.000          38.100          45.650
G28  21829136.338                    21829133.531                         602.034                         469.118                   114712888.66608                  89386657.16907                        51.250                          44.350
G30  25642420.437    25642421.950    25642421.361    25642421.429       -3347.254       -2608.247       -2608.250       -2499.702   134751822.40406 105001420.85406 105001397.84906 100626348.72007        39.250          39.400          37.800          44.000
G32  23673321.693    23673323.491    23673322.930    23673321.199        2163.342        1685.721        1685.721        1615.554   124404157.02608  96938315.47706  96938315.47306  92899219.10407        49.900          41.650          39.000          46.850
I06  41071293.863          35.838                          30.800
R03  22703837.684    22703836.677    22703836.672       -3517.667       -2735.965       -2735.966   121535437.18808  94527557.93107  94527561.93107        48.900          42.950          42.600
R05  21815085.996    21815087.664    21815087.752        3887.025        3023.243        3023.243   116614159.34708  90699914.21607  90699914.21507        50.950          46.600          46.050
R11  21077510.045    21077511.196    21077511.180       -1510.179       -1174.583       -1174.583   112631832.74808  87602541.23807  87602540.23607        52.350          47.800          47.250
R12  21967917.650    21967920.949    21967921.033        2325.742        1808.913        1808.913   117348683.16608  91271226.67607  91271233.67007        51.200          44.750          44.500
R19  22560525.007    22560525.378    22560524.974       -3915.826       -3045.645       -3045.644   120683588.03406  93865018.94606  93865014.95306        39.050          40.000          39.800
R20  19333233.299    19333236.114    19333235.026        -660.205        -513.493        -513.493   103383496.59107  80409390.73008  80409388.72608        46.900          48.650          48.600
R21  21171303.578    21171304.136    21171304.084        3343.535        2600.530        2600.529   113291924.83408  88115939.68707  88115945.68107        50.650          47.950          47.050
S23  40948893.767           -.691   215187880.93107        44.100
S36  40095404.891           4.027   210702765.21006        41.550
> 2019 09 27 10 02 30.0000000  0 42
C06  39270180.691    39270175.494        -137.192        -106.146   204490138.79607 158124740.11507        45.450          42.850
C09  39015342.195    39015339.369         824.938         637.927   203163137.30407 157098629.23107        46.550          45.200
C11  21951171.347    21951168.907       -1221.172        -944.272   114305531.40608  88388279.95108        49.850          51.950
C16  39131355.851    39131356.027          58.066          44.905   203767244.57807 157565768.50107        47.400          43.450
C21  22963949.440                         388.968                   119579334.73208                        51.900
C22  25170592.293                       -2523.216                   131069884.98108                        50.200
C23  26280211.193                       -3167.717                   136847942.70407                        45.000
C28  24343916.673                        2952.403                   126765157.46108                        49.650
E01  25406027.095    25406028.769    25406027.204    25406027.462        -221.311        -165.307        -169.566        -167.430   133509570.19948  99698715.99908 102299539.61908 100999126.23808        51.500          50.750          50.100          53.100
E03  25711538.922    25711541.464    25711540.030    25711540.634        1231.545         919.606         943.611         931.609   135115071.43148 100897639.45108 103529740.70708 102213687.51108        52.000          48.750          49.100          51.700
E05  26877136.245    26877138.744    26877137.482    26877137.888       -1535.981       -1147.148       -1177.134       -1162.167   141240313.13648 105471678.49207 108223106.90507 106847392.13108        48.850          46.700          46.700          49.400
E08  25528783.249    25528785.840    25528783.947    25528784.275        3139.228        2344.280        2405.464        2374.760   134154673.61347 100180453.22807 102793849.56707 101487149.83007        46.700          43.200          43.200          45.850
E13  23218710.646    23218711.813    23218710.423    23218710.826         335.757         250.735         257.261         254.001   122015145.56849  91115231.21908  93492149.44208  92303687.76209        54.000          53.800          53.600          56.450
E15  24850502.014    24850505.190    24850503.970    24850504.186       -2299.576       -1717.260       -1762.072       -1739.652   130590281.11548  97518733.72108 100062695.97108  98790714.27708        52.600          50.350          50.800          53.300
E18  17867600.229    17867601.137    17867599.854    17867600.055       -2275.577       -1699.272       -1743.597       -1721.444    93894871.18249  70116301.39309  71945416.01709  71030856.13809        55.850          56.550          56.550          59.200
E21  26378178.990    26378181.426    26378180.349    26378180.608       -2803.180       -2093.381       -2147.938       -2120.644   138618255.84548 103513636.00007 106213985.73508 104863809.30008        50.700          47.550          48.800          50.800
E26  24808780.345    24808783.846    24808782.133    24808782.574        2657.144        1984.160        2035.920        2009.999   130371017.51248  97354994.91208  99894689.08407  98624840.93108        50.350          48.550          47.750          50.850
E31  27484342.147    27484345.663    27484344.339    27484344.881        2375.561        1773.744        1820.311        1796.993   144431196.54047 107854482.25907 110668070.91907 109261274.02307        45.650          43.650          43.350          46.300
G01  20483224.074    20483225.408    20483225.326    20483223.650        1462.836        1139.872        1139.872        1092.351   107640075.69809  83875400.08108  83875404.07608  80380596.89909        54.350          51.800          50.250          56.100
G03  24675836.120    24675837.749    24675837.031    24675838.131        4008.738        3123.689        3123.690        2993.477   129672394.01707 101043435.48306 101043432.47905  96833292.15807        45.050          39.350          34.200          47.750
G08  21990426.109    21990428.127    21990427.390    21990425.976       -2860.797       -2229.192       -2229.193       -2136.323   115560465.71208  90047125.75008  90047122.74207  86295143.27108        53.350          49.750          47.700          52.700
G10  23351421.687    23351422.702    23351422.684    23351420.324       -2815.034       -2193.532       -2193.532       -2102.257   122712555.39107  95620182.90607  95620165.90407  91636006.17608        46.800          47.800          44.700          49.700
G11  20163330.929                    20163328.417                         610.928                         476.048                   105959027.05108                  82565468.43908                        51.000                          49.550
G14  24949513.245                    24949512.486                        3032.616                        2363.082                   131110585.84207                 102164092.47406                        42.800                          38.500
G17  24467658.127    24467656.708    24467656.381                        3388.287        2640.225        2640.225                   128578407.70407 100190962.60606 100190955.60406                        47.400          40.900          37.550
G18  19920622.855                    19920621.673                        -344.431                        -268.389                   104683619.80808                  81571623.86608                        53.150                          48.250
G22  23100583.077                    23100579.692                        3192.425                        2487.606                   121394399.64708                  94593028.64207                        50.300                          44.650
G24  24503742.659    24503744.899    24503744.354    24503744.507        1631.342        1271.176        1271.176        1218.130   128768035.98707 100338750.61407 100338729.61006  96157962.34707        45.800          43.000          41.400          45.300
G27  25157221.532    25157223.728    25157223.116    25157223.317       -3875.809       -3020.114       -3020.117       -2894.356   132202069.71607 103014600.24007 103014593.23506  98722320.57307        45.250          42.400          39.550          44.150
G28  21825751.176                    21825748.299                         583.453                         454.638                   114695099.30608                  89372795.32907                        51.400                          44.850
G30  25661539.525    25661541.386    25661540.602    25661540.520       -3351.256       -2611.364       -2611.362       -2502.609   134852299.90506 105079710.97606 105079718.97205 100701376.75406        41.000          37.550          34.100          36.700
G32  23661015.048    23661016.274    23661015.589    23661014.890        2147.632        1673.478        1673.478        1603.768   124339484.72308  96887921.45507  96887921.45606  92850924.88807        50.800          42.550          39.550          45.950
I06  41071018.143          35.806   161171497.51205        30.150
R03  22723597.822    22723596.694    22723596.861       -3534.406       -2748.984       -2748.984   121641213.71808  94609828.49307  94609832.49707        49.250          42.750          42.250
